{"version": 0.6, "generator": "Overpass API 0.7.62.11 87bfad18", "osm3s": {"timestamp_osm_base": "2026-04-13T12:22:56Z", "copyright": "The data included in this document is from www.openstreetmap.org. The data is made available under ODbL."}, "elements": [{"type": "node", "id": 309159996, "lat": 27.96406, "lon": -82.4358295, "tags": {"addr:city": "Tampa", "addr:housenumber": "2302", "addr:postcode": "33605-3928", "addr:state": "FL", "addr:street": "North 21st Street", "amenity": "fast_food", "brand": "Burger King", "brand:wikidata": "Q177054", "cuisine": "burger", "delivery": "yes", "drive_through": "yes", "name": "Burger King", "opening_hours": "Mo-Th 05:00-24:00; Fr-Sa 05:00-01:00; Su 05:00-24:00", "phone": "+1 813-443-8295", "ref": "3066", "takeaway": "yes", "website": "https://www.bk.com/store-locator/store/restaurant_1689"}}, {"type": "node", "id": 309160598, "lat": 27.9642764, "lon": -82.4353229, "tags": {"addr:city": "Tampa", "addr:housenumber": "2101", "addr:postcode": "33605", "addr:state": "FL", "addr:street": "East 13th Avenue", "amenity": "fast_food", "brand": "McDonald's", "brand:wikidata": "Q38076", "cuisine": "burger", "drive_through": "yes", "internet_access": "wlan", "name": "McDonald's", "opening_hours": "05:00-22:00", "phone": "+1 813-248-5194", "takeaway": "yes", "website": "https://www.mcdonalds.com/us/en-us/location/27982.html"}}, {"type": "node", "id": 321448213, "lat": 27.9484644, "lon": -82.4586879, "tags": {"addr:city": "Tampa", "addr:country": "US", "addr:housenumber": "212", "addr:postcode": "33602", "addr:state": "FL", "addr:street": "E Madison Street", "amenity": "fast_food", "brand": "Subway", "brand:wikidata": "Q244457", "cuisine": "sandwich", "name": "Subway", "opening_hours": "Mo-Sa 09:00-21:00;Su 09:00-18:00", "phone": "+1 813-223-4448", "takeaway": "yes", "website": "https://restaurants.subway.com/united-states/fl/tampa/212-e-madison-st", "wheelchair": "yes"}}, {"type": "node", "id": 321466877, "lat": 27.9504126, "lon": -82.4554185, "tags": {"addr:city": "Tampa", "addr:country": "US", "addr:housenumber": "620", "addr:postcode": "33602", "addr:state": "FL", "addr:street": "E Twiggs Street", "amenity": "fast_food", "brand": "Subway", "brand:wikidata": "Q244457", "cuisine": "sandwich", "drive_through": "no", "name": "Subway", "opening_hours": "Mo-Fr 07:00-19:00", "outdoor_seating": "no", "phone": "+1 813-542-1552", "takeaway": "yes", "website": "https://restaurants.subway.com/united-states/fl/tampa/620-twiggs-ave"}}, {"type": "node", "id": 353893649, "lat": 28.0565494, "lon": -82.4266601, "tags": {"addr:city": "Tampa", "addr:housenumber": "11860", "addr:postcode": "33612", "addr:state": "FL", "addr:street": "Bruce B Downs Boulevard", "amenity": "fast_food", "brand": "Panera Bread", "brand:wikidata": "Q7130852", "cuisine": "sandwich;bakery", "name": "Panera Bread", "opening_hours": "Mo-Sa 06:30-21:30; Su 07:00-21:00", "phone": "+1 813-866-9333", "short_name": "Panera", "takeaway": "yes", "website": "https://locations.panerabread.com/fl/tampa/11860-bruce-b-downs-boulevard.html"}}, {"type": "node", "id": 355410684, "lat": 28.0698492, "lon": -82.3618406}, {"type": "node", "id": 355410685, "lat": 28.0697356, "lon": -82.3618406}, {"type": "node", "id": 355410686, "lat": 28.0697356, "lon": -82.3620809}, {"type": "node", "id": 355412813, "lat": 28.0697008, "lon": -82.3628532}, {"type": "node", "id": 355412814, "lat": 28.069701, "lon": -82.3627598}, {"type": "node", "id": 355412816, "lat": 28.06988, "lon": -82.3627603}, {"type": "node", "id": 358707573, "lat": 27.9811245, "lon": -82.4549159, "tags": {"addr:city": "Tampa", "addr:housenumber": "501", "addr:postcode": "33603", "addr:state": "FL", "addr:street": "East Drive M L K Jr Drive", "amenity": "fast_food", "brand": "McDonald's", "brand:wikidata": "Q38076", "cuisine": "burger", "drive_through": "yes", "ele": "14", "gnis:feature_id": "292007", "internet_access": "wlan", "name": "McDonald's", "opening_hours": "05:00-22:00", "phone": "+1 813-225-2626", "takeaway": "yes", "website": "https://www.mcdonalds.com/us/en-us/location/10773.html"}}, {"type": "node", "id": 360681185, "lat": 28.0697008, "lon": -82.3673473, "tags": {"amenity": "fast_food", "created_by": "Potlatch 0.10f", "name": "Lenny's Sub Shop"}}, {"type": "node", "id": 366914932, "lat": 28.033931, "lon": -82.4591004}, {"type": "node", "id": 366914933, "lat": 28.033927, "lon": -82.458875}, {"type": "node", "id": 366914935, "lat": 28.0337588, "lon": -82.4588788}, {"type": "node", "id": 366914936, "lat": 28.0337627, "lon": -82.4591042}, {"type": "node", "id": 366947901, "lat": 28.0533826, "lon": -82.3945101, "tags": {"amenity": "fast_food", "brand": "Quiznos", "brand:wikidata": "Q1936229", "cuisine": "sandwich", "name": "Quiznos", "takeaway": "yes"}}, {"type": "node", "id": 386088887, "lat": 27.9627119, "lon": -82.438123, "tags": {"amenity": "fast_food", "branch": "Subs", "brand": "Blimpie", "brand:wikidata": "Q4926479", "cuisine": "sandwich", "name": "Blimpie", "takeaway": "yes"}}, {"type": "node", "id": 417183018, "lat": 28.1311386, "lon": -82.3661071}, {"type": "node", "id": 417183020, "lat": 28.1309689, "lon": -82.3658916}, {"type": "node", "id": 417183021, "lat": 28.1312363, "lon": -82.3656227}, {"type": "node", "id": 417183023, "lat": 28.1314054, "lon": -82.3658397}, {"type": "node", "id": 427599083, "lat": 27.9629279, "lon": -82.4226331, "tags": {"amenity": "fast_food", "name": "Abella's Sandwich Shop"}}, {"type": "node", "id": 440867393, "lat": 28.1306637, "lon": -82.3669206, "tags": {"addr:city": "Tampa", "addr:housenumber": "18003", "addr:postcode": "33647", "addr:state": "FL", "addr:street": "Highwoods Preserve Parkway", "alt_name": "Dunkin' Donuts", "amenity": "fast_food", "brand": "Dunkin'", "brand:wikidata": "Q847743", "cuisine": "donut;coffee_shop", "drive_through": "yes", "name": "Dunkin'", "opening_hours": "05:00-22:00", "outdoor_seating": "yes", "phone": "+1 813-971-7547", "ref": "336458", "takeaway": "yes", "toilets": "yes", "toilets:access": "customers", "website": "https://locations.dunkindonuts.com/en/fl/tampa/18003-highwoods-preserve-pkwy/336458", "wheelchair": "yes"}}, {"type": "node", "id": 444525823, "lat": 27.9613455, "lon": -82.4021365, "tags": {"addr:city": "Tampa", "addr:country": "US", "addr:postcode": "33605", "addr:state": "FL", "addr:street": "N 50th St", "amenity": "fast_food", "brand": "Checkers", "brand:wikidata": "Q63919315", "cuisine": "burger", "drive_through": "yes", "name": "Checkers", "outdoor_seating": "yes", "takeaway": "yes", "website": "https://checkersandrallys.com/location/checkers-5280-e-broadway-307402"}}, {"type": "node", "id": 444550780, "lat": 27.9598682, "lon": -82.4023296, "tags": {"addr:city": "Tampa", "addr:housenumber": "1702", "addr:postcode": "33619", "addr:state": "FL", "addr:street": "North 50th Street", "addr:unit": "A", "amenity": "fast_food", "brand": "Subway", "brand:wikidata": "Q244457", "cuisine": "sandwich", "name": "Subway", "opening_hours": "09:00-17:00", "phone": "+1 813-248-8161", "takeaway": "yes", "website": "https://restaurants.subway.com/united-states/fl/tampa/1702-n-50th-street"}}, {"type": "node", "id": 444587195, "lat": 27.9620945, "lon": -82.4023134, "tags": {"addr:city": "Tampa", "addr:housenumber": "2006", "addr:postcode": "33619", "addr:state": "FL", "addr:street": "North 50th Street", "amenity": "fast_food", "brand": "McDonald's", "brand:wikidata": "Q38076", "cuisine": "burger", "drive_through": "yes", "internet_access": "wlan", "name": "McDonald's", "opening_hours": "05:00-22:00", "phone": "+1 813-248-9885", "takeaway": "yes", "website": "https://www.mcdonalds.com/us/en-us/location/5470.html"}}, {"type": "node", "id": 444963483, "lat": 27.9627342, "lon": -82.4022808, "tags": {"addr:city": "Tampa", "addr:housenumber": "2016", "addr:postcode": "33619", "addr:state": "FL", "addr:street": "North 50th Street", "amenity": "fast_food", "brand": "Taco Bell", "brand:wikidata": "Q752941", "cuisine": "tex-mex", "name": "Taco Bell", "opening_hours": "Mo-We 07:00-02:00; Th-Sa 07:00-03:00; Su 07:00-02:00", "phone": "+1 813-241-4108", "takeaway": "yes", "website": "https://locations.tacobell.com/fl/tampa/2016-north-50th-street.html"}}, {"type": "node", "id": 444979528, "lat": 27.9633225, "lon": -82.4013381, "tags": {"addr:city": "Tampa", "addr:country": "US", "addr:postcode": "33619", "addr:state": "FL", "amenity": "fast_food", "brand": "Church's Chicken", "brand:wikidata": "Q1089932", "cuisine": "chicken", "fixme:atp": "no ATP match, check if still exists", "name": "Church's Chicken", "takeaway": "yes"}}, {"type": "node", "id": 459407326, "lat": 27.9617228, "lon": -82.4014503, "tags": {"addr:city": "Tampa", "addr:country": "US", "addr:housenumber": "1733", "addr:postcode": "33619", "addr:state": "FL", "addr:street": "East Broadway Avenue", "alt_name": "Kentucky Fried Chicken", "amenity": "fast_food", "brand": "KFC", "brand:wikidata": "Q524757", "cuisine": "chicken", "drive_through": "yes", "name": "KFC", "takeaway": "yes", "website": "https://locations.kfc.com/fl/tampa/1733-n-50th-street"}}, {"type": "node", "id": 461817346, "lat": 28.0808836, "lon": -82.4258442, "tags": {"addr:city": "Tampa", "addr:housenumber": "3019", "addr:postcode": "33613", "addr:state": "FL", "addr:street": "Cove Bend Drive", "amenity": "fast_food", "branch": "Bearss Avenue", "brand": "Chick-fil-A", "brand:wikidata": "Q491516", "cuisine": "chicken", "delivery": "yes", "drive_through": "yes", "indoor_seating": "yes", "internet_access": "wlan", "name": "Chick-fil-A", "opening_hours": "Mo-Sa 06:00-22:00; Su off", "phone": "+1 813-866-7766", "ref": "01709", "takeaway": "yes", "website": "https://www.chick-fil-a.com/locations/fl/bearss-avenue"}}, {"type": "node", "id": 485257597, "lat": 27.9450176, "lon": -82.5220973}, {"type": "node", "id": 485261681, "lat": 27.9451628, "lon": -82.5076044, "tags": {"addr:city": "Tampa", "addr:country": "US", "addr:housenumber": "3843", "addr:postcode": "33609", "addr:state": "FL", "addr:street": "West Kennedy Boulevard", "addr:unit": "1", "amenity": "fast_food", "branch": "Tampa- Collier Center", "brand": "Five Guys", "brand:wikidata": "Q1131810", "cuisine": "burger", "name": "Five Guys", "official_name": "Five Guys Burgers and Fries", "opening_hours": "11:00-21:30", "phone": "+1 813-879-0300", "takeaway": "yes", "website": "https://restaurants.fiveguys.com/3841-west-kennedy-blvd"}}, {"type": "node", "id": 485279161, "lat": 27.9630235, "lon": -82.5052416}, {"type": "node", "id": 486954578, "lat": 27.9567493, "lon": -82.4844968}, {"type": "node", "id": 488001720, "lat": 27.9956164, "lon": -82.3878628}, {"type": "node", "id": 488001754, "lat": 27.9628753, "lon": -82.4014242, "tags": {"amenity": "fast_food", "name": "Salems Gyros & Subs"}}, {"type": "node", "id": 488804482, "lat": 28.0726527, "lon": -82.426699, "tags": {"addr:city": "Tampa", "addr:housenumber": "13712", "addr:postcode": "33613", "addr:state": "FL", "addr:street": "Bruce B. Downs Boulevard", "amenity": "fast_food", "brand": "Wendy's", "brand:wikidata": "Q550258", "cuisine": "burger", "drive_through": "yes", "name": "Wendy's", "opening_hours": "07:00-22:00", "opening_hours:drive_through": "Mo-Th 06:30-01:00; Fr-Sa 06:30-02:00; Su 06:30-01:00", "phone": "+1 813-977-1732", "takeaway": "yes", "website": "https://locations.wendys.com/united-states/fl/tampa/13712-bruce-b-downs-blvd"}}, {"type": "node", "id": 493885543, "lat": 27.9965335, "lon": -82.4385794, "tags": {"addr:city": "Tampa", "addr:housenumber": "1908", "addr:postcode": "33610", "addr:state": "FL", "addr:street": "East Hillsborough Avenue", "amenity": "fast_food", "brand": "McDonald's", "brand:wikidata": "Q38076", "cuisine": "burger", "drive_through": "yes", "internet_access": "wlan", "name": "McDonald's", "opening_hours": "06:00-22:00", "phone": "+1 813-239-3411", "takeaway": "yes", "website": "https://www.mcdonalds.com/us/en-us/location/1314.html"}}, {"type": "node", "id": 509762902, "lat": 28.0667983, "lon": -82.5045294, "tags": {"addr:city": "Tampa", "addr:state": "FL", "addr:street": "North Dale Mabry Highway", "amenity": "fast_food", "brand": "Wendy's", "brand:wikidata": "Q550258", "cuisine": "burger", "drive_through": "yes", "fixme:atp": "no ATP match, check if still exists", "name": "Wendy's", "takeaway": "yes"}}, {"type": "node", "id": 510985671, "lat": 28.1272241, "lon": -82.3682266}, {"type": "node", "id": 510986148, "lat": 28.1272123, "lon": -82.3670271}, {"type": "node", "id": 510986154, "lat": 28.1270682, "lon": -82.3668438}, {"type": "node", "id": 510986160, "lat": 28.1271658, "lon": -82.3667452}, {"type": "node", "id": 510986165, "lat": 28.1273099, "lon": -82.3669284}, {"type": "node", "id": 510987679, "lat": 28.1271716, "lon": -82.3682609}, {"type": "node", "id": 510987685, "lat": 28.1271314, "lon": -82.3682385}, {"type": "node", "id": 510987693, "lat": 28.1271068, "lon": -82.3682272}, {"type": "node", "id": 510987704, "lat": 28.1269903, "lon": -82.3680752}, {"type": "node", "id": 510987714, "lat": 28.1270834, "lon": -82.3679842}, {"type": "node", "id": 510987748, "lat": 28.1271795, "lon": -82.3681093}, {"type": "node", "id": 510987755, "lat": 28.1272119, "lon": -82.3681582}, {"type": "node", "id": 511945503, "lat": 27.939657, "lon": -82.482749, "tags": {"addr:city": "Tampa", "addr:housenumber": "500", "addr:postcode": "33606", "addr:street": "S Howard Ave", "amenity": "fast_food", "name": "Shula Burger", "phone": "+1-813-867-8230", "website": "https://shulaburger.com/", "wheelchair": "no"}}, {"type": "node", "id": 544447012, "lat": 28.0603225, "lon": -82.4098054, "tags": {"addr:city": "Tampa", "addr:housenumber": "12302", "addr:postcode": "33620", "addr:state": "FL", "addr:street": "USF Maple Drive", "amenity": "fast_food", "brand": "Chick-fil-A", "brand:wikidata": "Q491516", "cuisine": "chicken", "drive_through": "no", "name": "Chick-fil-A", "opening_hours": "Mo-Th 08:00-20:00", "takeaway": "yes", "website": "https://www.chick-fil-a.com/locations/fl/university-of-south-florida-sessums-mall"}}, {"type": "node", "id": 570760825, "lat": 28.0597001, "lon": -82.4105439, "tags": {"addr:city": "Tampa", "addr:housenumber": "4202", "addr:postcode": "33620", "addr:state": "FL", "addr:street": "East Fowler Avenue", "addr:unit": "Cpr116", "amenity": "fast_food", "brand": "Subway", "brand:wikidata": "Q244457", "cuisine": "sandwich", "name": "Subway", "opening_hours": "Mo-Th 07:30-19:00; Fr 07:30-16:00; Sa 10:00-16:00", "phone": "+1 813-974-1061", "takeaway": "yes", "website": "https://restaurants.subway.com/united-states/fl/tampa/4202-e-fowler-ave-28931-0"}}, {"type": "node", "id": 736617961, "lat": 28.0540112, "lon": -82.4011585, "tags": {"addr:city": "Tampa", "addr:housenumber": "5003", "addr:postcode": "33617", "addr:state": "FL", "addr:street": "East Fowler Avenue", "alt_name": "Einstein Brothers Bagels", "amenity": "fast_food", "branch": "Fowler Avenue & 50th Street", "brand": "Einstein Bros. Bagels", "brand:wikidata": "Q5349788", "cuisine": "bagel", "name": "Einstein Bros. Bagels", "opening_hours": "Mo-Fr 05:30-14:00; Sa-Su 06:00-14:00", "phone": "+1 813-988-0088", "takeaway": "yes", "website": "https://locations.einsteinbros.com/us/fl/tampa/5003-e-fowler-ave"}}, {"type": "node", "id": 736617965, "lat": 28.0536846, "lon": -82.4013275, "tags": {"amenity": "fast_food", "name": "D-Lite's Ice Cream"}}, {"type": "node", "id": 736617971, "lat": 28.053687, "lon": -82.4015064, "tags": {"addr:city": "Tampa", "addr:housenumber": "5001", "addr:postcode": "33617", "addr:state": "FL", "addr:street": "East Fowler Avenue", "amenity": "fast_food", "brand": "Qdoba", "brand:wikidata": "Q1363885", "cuisine": "mexican", "name": "Qdoba", "official_name": "Qdoba Mexican Grill", "opening_hours": "Mo-Sa 11:00-21:30; Su 11:00-21:00", "phone": "+1 813-984-4650", "takeaway": "yes", "website": "https://locations.qdoba.com/us/fl/tampa/5001-e-fowler-ave.html"}}, {"type": "node", "id": 761955143, "lat": 27.9448979, "lon": -82.476158, "tags": {"addr:city": "Tampa", "addr:housenumber": "1605", "addr:postcode": "33606", "addr:state": "FL", "addr:street": "W Kennedy Boulevard", "alt_name": "Kentucky Fried Chicken", "amenity": "fast_food", "brand": "KFC", "brand:wikidata": "Q524757", "cuisine": "chicken", "drive_through": "yes", "name": "KFC", "phone": "+1-813-253-3970", "smoking": "no", "takeaway": "yes", "website": "https://locations.kfc.com/fl/tampa/1605-w-kennedy-boulevard"}}, {"type": "node", "id": 761955144, "lat": 27.9450644, "lon": -82.4749637}, {"type": "node", "id": 821349257, "lat": 28.0696171, "lon": -82.4274435, "tags": {"addr:city": "Tampa", "addr:housenumber": "2902", "addr:postcode": "33612-9408", "addr:state": "FL", "addr:street": "East Fletcher Avenue", "amenity": "fast_food", "brand": "Burger King", "brand:wikidata": "Q177054", "cuisine": "burger", "delivery": "yes", "drive_through": "yes", "name": "Burger King", "opening_hours": "Mo-Th 05:00-24:00; Fr-Sa 05:00-01:00; Su 05:00-24:00", "phone": "+1 813-374-8917", "ref": "6978", "takeaway": "yes", "website": "https://www.bk.com/store-locator/store/restaurant_3984"}}, {"type": "node", "id": 821349258, "lat": 28.0695414, "lon": -82.4286183, "tags": {"addr:city": "Tampa", "addr:country": "US", "addr:postcode": "33613", "addr:state": "FL", "addr:street": "East Fletcher Avenue", "amenity": "fast_food", "cuisine": "bagel", "drive_through": "no", "internet_access": "no", "name": "Bagels Plus", "outdoor_seating": "yes", "smoking": "outside", "takeaway": "yes"}}, {"type": "node", "id": 821349266, "lat": 28.0687746, "lon": -82.4266146, "tags": {"addr:city": "Tampa", "addr:country": "US", "addr:postcode": "33612", "addr:state": "FL", "addr:street": "E Fletcher Avenue", "alt_name": "Dunkin' Donuts", "amenity": "fast_food", "brand": "Dunkin'", "brand:wikidata": "Q847743", "contact:website": "https://locations.dunkindonuts.com/en/fl/tampa/13430-bruce-b.-downs-blvd/346491", "cuisine": "donut;coffee_shop", "fixme:atp": "Check if still exists. No corresponding ATP object.", "name": "Dunkin'", "takeaway": "yes"}}, {"type": "node", "id": 821355895, "lat": 28.0696219, "lon": -82.4313909, "tags": {"addr:city": "Tampa", "addr:country": "US", "addr:housenumber": "2316", "addr:postcode": "33612", "addr:state": "FL", "addr:street": "East Fletcher Avenue", "amenity": "fast_food", "brand": "Domino's", "brand:wikidata": "Q839466", "cuisine": "pizza", "name": "Domino's", "opening_hours": "Mo-Th 10:00-01:00; Fr-Sa 10:00-02:00; Su 10:00-01:00", "phone": "+1 813-971-7875", "ref": "5001", "takeaway": "yes", "website": "https://pizza.dominos.com/florida/tampa/2316-e-fletcher-ave"}}, {"type": "node", "id": 821355897, "lat": 28.0696029, "lon": -82.4299949, "tags": {"addr:city": "Tampa", "addr:country": "US", "addr:housenumber": "2602", "addr:postcode": "33612", "addr:state": "FL", "addr:street": "E Fletcher Avenue", "amenity": "fast_food", "brand": "Subway", "brand:wikidata": "Q244457", "check_date": "2012-05-28", "cuisine": "sandwich", "name": "Subway", "opening_hours": "Mo-Sa 08:00-22:00; Su 09:00-22:00", "phone": "+1 813-977-9288", "takeaway": "yes", "website": "https://restaurants.subway.com/united-states/fl/tampa/2602-e-fletcher-ave"}}, {"type": "node", "id": 821355898, "lat": 28.0696172, "lon": -82.4300593, "tags": {"addr:city": "Tampa", "addr:country": "US", "addr:postcode": "33612", "addr:state": "FL", "addr:street": "E Fletcher Ave", "amenity": "fast_food", "check_date": "2010-07-27", "name": "Advance America Cash Advance", "shop": "money_lender"}}, {"type": "node", "id": 821879321, "lat": 28.0687171, "lon": -82.4455649, "tags": {"addr:city": "Tampa", "addr:country": "US", "addr:housenumber": "1309", "addr:postcode": "33612", "addr:state": "FL", "addr:street": "E Fletcher Ave", "amenity": "fast_food", "brand": "Little Caesars", "brand:wikidata": "Q1393809", "cuisine": "pizza", "name": "Little Caesars", "takeaway": "yes", "website": "https://littlecaesars.com/en-us/store/8476/"}}, {"type": "node", "id": 822174844, "lat": 28.0694156, "lon": -82.4334207}, {"type": "node", "id": 822174845, "lat": 28.0694152, "lon": -82.4333389}, {"type": "node", "id": 822174846, "lat": 28.0695927, "lon": -82.433338}, {"type": "node", "id": 822174847, "lat": 28.0695931, "lon": -82.4334198}, {"type": "node", "id": 822174848, "lat": 28.0694148, "lon": -82.4338738}, {"type": "node", "id": 822174849, "lat": 28.0694157, "lon": -82.433814}, {"type": "node", "id": 822174850, "lat": 28.0696262, "lon": -82.4338178}, {"type": "node", "id": 822174851, "lat": 28.0696251, "lon": -82.433897}, {"type": "node", "id": 822174852, "lat": 28.0694306, "lon": -82.4338935}, {"type": "node", "id": 822174853, "lat": 28.0694308, "lon": -82.4338741}, {"type": "node", "id": 823508337, "lat": 28.0696393, "lon": -82.4381438, "tags": {"addr:city": "Tampa", "addr:country": "US", "addr:housenumber": "1908", "addr:postcode": "33612", "addr:state": "FL", "addr:street": "E Fletcher Ave", "amenity": "fast_food", "name": "El Pueblo Chico", "note": "sign also indicates shop, bakery, and sending money overseas"}}, {"type": "node", "id": 827045481, "lat": 28.0557863, "lon": -82.3940296}, {"type": "node", "id": 830791755, "lat": 28.0698798, "lon": -82.3628537}, {"type": "node", "id": 830791769, "lat": 28.0698492, "lon": -82.3620809}, {"type": "node", "id": 832792277, "lat": 28.0539316, "lon": -82.3942748, "tags": {"amenity": "fast_food", "brand": "Boston Market", "brand:wikidata": "Q603617", "cuisine": "american;chicken", "name": "Boston Market", "takeaway": "yes"}}, {"type": "node", "id": 832792284, "lat": 28.0538085, "lon": -82.3952083, "tags": {"addr:city": "Temple Terrace", "addr:housenumber": "5301", "addr:postcode": "33617-2221", "addr:state": "FL", "addr:street": "East Fowler Avenue", "amenity": "fast_food", "brand": "Burger King", "brand:wikidata": "Q177054", "cuisine": "burger", "delivery": "yes", "drive_through": "yes", "name": "Burger King", "opening_hours": "Mo-Th 05:00-24:00; Fr-Sa 05:00-01:00; Su 05:00-24:00", "phone": "+1 813-252-3950", "ref": "5400", "takeaway": "yes", "website": "https://www.bk.com/store-locator/store/restaurant_3024"}}, {"type": "node", "id": 832851664, "lat": 28.0537825, "lon": -82.3986968, "tags": {"amenity": "fast_food", "name": "Pita's Republic"}}, {"type": "node", "id": 832851671, "lat": 28.053915, "lon": -82.3969386, "tags": {"addr:city": "Temple Terrace", "addr:housenumber": "5507", "addr:postcode": "33617", "addr:state": "FL", "addr:street": "East Fowler Avenue", "amenity": "fast_food", "brand": "Subway", "brand:wikidata": "Q244457", "cuisine": "sandwich", "name": "Subway", "opening_hours": "08:30-21:00", "phone": "+1 813-988-5501", "takeaway": "yes", "website": "https://restaurants.subway.com/united-states/fl/temple-terrace/5507-e-fowler-ave"}}, {"type": "node", "id": 832851679, "lat": 28.053915, "lon": -82.3971626, "tags": {"amenity": "fast_food", "name": "Smoothie Plus"}}, {"type": "node", "id": 895791441, "lat": 28.0830911, "lon": -82.4120983, "tags": {"amenity": "fast_food", "brand": "Jersey Mike's Subs", "brand:wikidata": "Q6184897", "cuisine": "sandwich", "name": "Jersey Mike's Subs", "short_name": "Jersey Mike's", "source": "survey", "takeaway": "yes", "website": "https://www.jerseymikes.com/13007/tampa-fl"}}, {"type": "node", "id": 895791446, "lat": 28.0829302, "lon": -82.4122509, "tags": {"addr:city": "Tampa", "addr:housenumber": "14917", "addr:postcode": "33613", "addr:state": "FL", "addr:street": "Bruce B Downs Boulevard", "amenity": "fast_food", "brand": "Papa John's", "brand:wikidata": "Q2759586", "cuisine": "pizza", "name": "Papa John's", "opening_hours": "Mo-Sa 09:30-24:00; Su 09:30-23:00", "phone": "+1 813-903-0911", "source": "survey", "takeaway": "yes", "website": "https://locations.papajohns.com/united-states/fl/33613/tampa/14917-bruce-b-downs-boulevard"}}, {"type": "node", "id": 896307374, "lat": 28.057301, "lon": -82.4300174, "tags": {"amenity": "fast_food", "name": "Byblos Pitas"}}, {"type": "node", "id": 896307438, "lat": 28.0552559, "lon": -82.4291269, "tags": {"addr:city": "Tampa", "addr:country": "US", "addr:housenumber": "2618", "addr:postcode": "33612", "addr:state": "FL", "addr:street": "E Fowler Ave", "amenity": "fast_food", "brand": "Firehouse Subs", "brand:wikidata": "Q5451873", "cuisine": "sandwich", "name": "Firehouse Subs", "takeaway": "yes"}}, {"type": "node", "id": 896307457, "lat": 28.0561388, "lon": -82.4279762, "tags": {"amenity": "fast_food", "name": "Evo's Fast Food"}}, {"type": "node", "id": 896307486, "lat": 28.0559944, "lon": -82.4278635, "tags": {"addr:city": "Tampa", "addr:housenumber": "2776", "addr:postcode": "33612", "addr:state": "FL", "addr:street": "East Fowler Avenue", "amenity": "fast_food", "branch": "Tampa Fowler", "brand": "Wingstop", "brand:wikidata": "Q8025339", "cuisine": "wings", "name": "Wingstop", "phone": "+1 813-903-9464", "takeaway": "yes"}}, {"type": "node", "id": 896327527, "lat": 28.0566927, "lon": -82.4298537, "tags": {"amenity": "fast_food", "name": "Mr. Empanada"}}, {"type": "node", "id": 896353231, "lat": 28.0548772, "lon": -82.4298511, "tags": {"addr:city": "Tampa", "addr:housenumber": "2576", "addr:postcode": "33612", "addr:state": "FL", "addr:street": "East Fowler Avenue", "amenity": "fast_food", "brand": "Chipotle", "brand:wikidata": "Q465751", "cuisine": "mexican", "name": "Chipotle", "official_name": "Chipotle Mexican Grill", "phone": "+1 813-971-4360", "takeaway": "yes", "website": "https://locations.chipotle.com/fl/tampa/2576-e-fowler-ave"}}, {"type": "node", "id": 896374488, "lat": 28.0553908, "lon": -82.4300603, "tags": {"amenity": "fast_food", "brand": "Quiznos", "brand:wikidata": "Q1936229", "cuisine": "sandwich", "name": "Quiznos", "takeaway": "yes"}}, {"type": "node", "id": 907251221, "lat": 28.0537131, "lon": -82.4334177, "tags": {"amenity": "fast_food", "brand": "Pita Pit", "brand:wikidata": "Q7757289", "cuisine": "pita", "name": "Pita Pit", "takeaway": "yes"}}, {"type": "node", "id": 907251245, "lat": 28.0533341, "lon": -82.4329791, "tags": {"addr:city": "Tampa", "addr:country": "US", "addr:housenumber": "2301", "addr:postcode": "33612", "addr:state": "FL", "addr:street": "E Fowler Avenue", "amenity": "fast_food", "brand": "Jimmy John's", "brand:wikidata": "Q1689380", "cuisine": "sandwich", "name": "Jimmy John's", "official_name": "Jimmy John's Gourmet Sandwiches", "phone": "+1 813-975-4100", "takeaway": "yes", "website": "https://locations.jimmyjohns.com/fl/tampa/sandwiches-403.html"}}, {"type": "node", "id": 907340278, "lat": 28.0533793, "lon": -82.4349331, "tags": {"amenity": "fast_food", "name": "Doc's Bar-B-Q"}}, {"type": "node", "id": 913686790, "lat": 27.9963157, "lon": -82.5832468}, {"type": "node", "id": 913686791, "lat": 27.996315, "lon": -82.5830795}, {"type": "node", "id": 913686793, "lat": 27.9960923, "lon": -82.5830806}, {"type": "node", "id": 913686794, "lat": 27.9960929, "lon": -82.5832479}, {"type": "node", "id": 962361057, "lat": 28.0551675, "lon": -82.4502284}, {"type": "node", "id": 962361058, "lat": 28.0549498, "lon": -82.4502338}, {"type": "node", "id": 962361059, "lat": 28.054945, "lon": -82.4499763}, {"type": "node", "id": 962361064, "lat": 28.055177, "lon": -82.4499656}, {"type": "node", "id": 962361065, "lat": 28.055177, "lon": -82.4500112}, {"type": "node", "id": 962361066, "lat": 28.0551817, "lon": -82.4500112}, {"type": "node", "id": 962361067, "lat": 28.0551841, "lon": -82.4501694}, {"type": "node", "id": 962361068, "lat": 28.0551697, "lon": -82.4501695}, {"type": "node", "id": 981830335, "lat": 28.144646, "lon": -82.2822058, "tags": {"addr:city": "Tampa", "addr:housenumber": "10960", "addr:postcode": "33647", "addr:state": "FL", "addr:street": "B-Cross Creek", "alt_name": "Dunkin' Donuts", "amenity": "fast_food", "brand": "Dunkin'", "brand:wikidata": "Q847743", "cuisine": "donut;coffee_shop", "drive_through": "yes", "name": "Dunkin'", "opening_hours": "05:00-20:00", "phone": "+1 813-388-6877", "ref": "344481", "takeaway": "yes", "website": "https://locations.dunkindonuts.com/en/fl/tampa/10960-b-cross-creek/344481"}}, {"type": "node", "id": 996980672, "lat": 28.0800542, "lon": -82.4372728, "tags": {"addr:city": "Tampa", "addr:housenumber": "1909", "addr:postcode": "33613", "addr:state": "FL", "addr:street": "East Bearss Avenue", "alt_name": "Dunkin' Donuts", "amenity": "fast_food", "brand": "Dunkin'", "brand:wikidata": "Q847743", "cuisine": "donut;coffee_shop", "drive_through": "yes", "name": "Dunkin'", "opening_hours": "05:00-22:00", "phone": "+1 813-632-8744", "ref": "341060", "takeaway": "yes", "website": "https://locations.dunkindonuts.com/en/fl/tampa/1909-e-bearss-ave/341060"}}, {"type": "node", "id": 1033619530, "lat": 28.0807884, "lon": -82.4332231, "tags": {"addr:city": "Tampa", "addr:housenumber": "2320", "addr:postcode": "33549", "addr:state": "FL", "addr:street": "East Bearss Avenue", "amenity": "fast_food", "brand": "Sonic", "brand:wikidata": "Q7561808", "cuisine": "burger", "drive_in": "yes", "name": "Sonic", "opening_hours": "Mo-Th 08:00-24:00; Fr-Sa 08:00-01:00; Su 08:00-24:00", "phone": "+1 813-979-1272", "takeaway": "yes", "website": "https://locations.sonicdrivein.com/fl/tampa/2320-east-bearss-ave.html"}}, {"type": "node", "id": 1033910277, "lat": 28.1000977, "lon": -82.3994584, "tags": {"addr:city": "Tampa", "addr:housenumber": "16047", "addr:postcode": "33647", "addr:state": "FL", "addr:street": "Tampa Palms Boulevard", "addr:unit": "59", "amenity": "fast_food", "brand": "Subway", "brand:wikidata": "Q244457", "cuisine": "sandwich", "name": "Subway", "opening_hours": "10:00-20:00", "phone": "+1 813-632-8051", "takeaway": "yes", "website": "https://restaurants.subway.com/united-states/fl/tampa/16047-tampa-palms-blvd"}}, {"type": "node", "id": 1034234743, "lat": 28.1453895, "lon": -82.2829558, "tags": {"amenity": "fast_food", "brand": "Subway", "brand:wikidata": "Q244457", "cuisine": "sandwich", "fixme:atp": "no ATP match, check if still exists", "name": "Subway", "takeaway": "yes"}}, {"type": "node", "id": 1034425211, "lat": 28.1432184, "lon": -82.2912747, "tags": {"amenity": "fast_food", "name": "Hawkey NYS Pizza"}}, {"type": "node", "id": 1063813137, "lat": 28.0313818, "lon": -82.3938264, "tags": {"amenity": "fast_food", "brand": "Little Caesars", "brand:wikidata": "Q1393809", "cuisine": "pizza", "name": "Little Caesars", "takeaway": "yes", "website": "https://littlecaesars.com/en-us/store/7635/"}}, {"type": "node", "id": 1063930433, "lat": 28.0292818, "lon": -82.3938287, "tags": {"amenity": "fast_food", "brand": "Checkers", "brand:wikidata": "Q63919315", "cuisine": "burger", "name": "Checkers", "takeaway": "yes", "website": "https://checkersandrallys.com/location/checkers-5284-n-56th-st-281737"}}, {"type": "node", "id": 1063930559, "lat": 28.0305698, "lon": -82.3938501, "tags": {"addr:city": "Temple Terrace", "addr:housenumber": "8840", "addr:postcode": "33617", "addr:state": "FL", "addr:street": "North 56th Street", "amenity": "fast_food", "brand": "Subway", "brand:wikidata": "Q244457", "cuisine": "sandwich", "name": "Subway", "opening_hours": "09:00-22:00", "phone": "+1 813-985-8440", "takeaway": "yes", "website": "https://restaurants.subway.com/united-states/fl/temple-terrace/8840-n-56th-st"}}, {"type": "node", "id": 1067070643, "lat": 27.9327028, "lon": -82.5062318, "tags": {"addr:country": "US", "addr:postcode": "33629", "addr:state": "FL", "addr:street": "South Dale Mabry Highway", "amenity": "fast_food", "brand": "Quiznos", "brand:wikidata": "Q1936229", "cuisine": "sandwich", "drive_through": "no", "internet_access": "no", "name": "Quiznos", "outdoor_seating": "no", "smoking": "no", "takeaway": "yes"}}, {"type": "node", "id": 1072805773, "lat": 28.0467342, "lon": -82.3943285, "tags": {"addr:city": "Temple Terrace", "addr:housenumber": "10830", "addr:postcode": "33617-3644", "addr:state": "FL", "addr:street": "North 56th Street", "alt_name": "Dairy Queen", "amenity": "fast_food", "brand": "DQ Grill & Chill", "brand:wikidata": "Q1141226", "cuisine": "ice_cream;burger", "name": "DQ Grill & Chill", "phone": "+1 813-988-6132", "takeaway": "yes", "website": "https://www.dairyqueen.com/locations/fl/temple-terrace/10830-n-56th-st/2596"}}, {"type": "node", "id": 1144862559, "lat": 28.0622228, "lon": -82.5434375}, {"type": "node", "id": 1144862984, "lat": 28.0624253, "lon": -82.5435074}, {"type": "node", "id": 1144863058, "lat": 28.0622504, "lon": -82.5435587}, {"type": "node", "id": 1144863634, "lat": 28.0623977, "lon": -82.5433862}, {"type": "node", "id": 1339909773, "lat": 27.9400558, "lon": -82.4368844}, {"type": "node", "id": 1339909774, "lat": 27.9400589, "lon": -82.4370581}, {"type": "node", "id": 1339909780, "lat": 27.9401364, "lon": -82.4369595}, {"type": "node", "id": 1339909781, "lat": 27.9401369, "lon": -82.4369904}, {"type": "node", "id": 1339909782, "lat": 27.9401409, "lon": -82.4369903}, {"type": "node", "id": 1339909785, "lat": 27.9401421, "lon": -82.4370562}, {"type": "node", "id": 1339909788, "lat": 27.9401835, "lon": -82.4368815}, {"type": "node", "id": 1339909789, "lat": 27.9401849, "lon": -82.4369585}, {"type": "node", "id": 1363622864, "lat": 28.0450139, "lon": -82.5055014}, {"type": "node", "id": 1363750172, "lat": 28.0685841, "lon": -82.4686415, "tags": {"addr:city": "Tampa", "addr:housenumber": "926", "addr:postcode": "33612", "addr:state": "FL", "addr:street": "West Fletcher Avenue", "amenity": "fast_food", "brand": "McDonald's", "brand:wikidata": "Q38076", "cuisine": "burger", "drive_through": "yes", "internet_access": "wlan", "name": "McDonald's", "opening_hours": "05:00-24:00", "phone": "+1 813-960-9109", "takeaway": "yes", "website": "https://www.mcdonalds.com/us/en-us/location/15464.html"}}, {"type": "node", "id": 1523261525, "lat": 28.0806871, "lon": -82.4313512, "tags": {"amenity": "fast_food", "brand": "Checkers", "brand:wikidata": "Q63919315", "cuisine": "burger", "name": "Checkers", "source": "survey", "takeaway": "yes", "website": "https://checkersandrallys.com/location/checkers-5228-bearss-ave-east-140169"}}, {"type": "node", "id": 1607112098, "lat": 28.0550022, "lon": -82.4293652, "tags": {"addr:city": "Tampa", "addr:housenumber": "2702", "addr:postcode": "33612", "addr:state": "FL", "addr:street": "East Fowler Avenue", "addr:unit": "1A", "amenity": "fast_food", "branch": "University Collection Mall", "brand": "Five Guys", "brand:wikidata": "Q1131810", "cuisine": "burger", "name": "Five Guys", "official_name": "Five Guys Burgers and Fries", "opening_hours": "11:00-21:30", "phone": "+1 813-977-4400", "takeaway": "yes", "website": "https://restaurants.fiveguys.com/2702-e-fowler-ave"}}, {"type": "node", "id": 1638326388, "lat": 28.069776, "lon": -82.36276, "tags": {"entrance": "yes"}}, {"type": "node", "id": 1666167780, "lat": 28.0633842, "lon": -82.4139311, "tags": {"addr:city": "Tampa", "addr:housenumber": "4202", "addr:postcode": "33620", "addr:state": "FL", "addr:street": "East Fowler Avenue", "addr:unit": "152", "amenity": "fast_food", "branch": "University of South Florida", "brand": "Chick-fil-A", "brand:wikidata": "Q491516", "cuisine": "chicken", "delivery": "no", "drive_through": "no", "indoor_seating": "no", "name": "Chick-fil-A", "opening_hours": "Mo 10:30-20:00; Tu 10:30-21:00; We-Sa 10:30-20:00; Su off", "phone": "+1 813-974-0917", "ref": "80229", "takeaway": "yes", "website": "https://www.chick-fil-a.com/locations/fl/university-of-south-florida"}}, {"type": "node", "id": 1675986915, "lat": 27.9376771, "lon": -82.4826664, "tags": {"amenity": "fast_food", "brand": "Subway", "brand:wikidata": "Q244457", "cuisine": "sandwich", "fixme:atp": "no ATP match, check if still exists", "name": "Subway", "takeaway": "yes"}}, {"type": "node", "id": 1684049224, "lat": 27.9256223, "lon": -82.4530835, "tags": {"addr:city": "Tampa", "addr:housenumber": "304", "addr:postcode": "33606", "addr:state": "FL", "addr:street": "East Davis Boulevard", "addr:suite": "B", "addr:unit": "4", "amenity": "fast_food", "brand": "Subway", "brand:wikidata": "Q244457", "cuisine": "sandwich", "drive_through": "no", "name": "Subway", "opening_hours": "Mo-Su 09:00-21:00", "phone": "+1 813-259-0253", "ref": "30375", "takeaway": "yes", "website": "https://restaurants.subway.com/united-states/fl/tampa/304b-east-davis-blvd"}}, {"type": "node", "id": 1706451248, "lat": 28.1461217, "lon": -82.3538165, "tags": {"addr:city": "Tampa", "addr:housenumber": "19080", "addr:postcode": "33647", "addr:state": "FL", "addr:street": "Bruce B Downs Boulevard", "amenity": "fast_food", "brand": "McDonald's", "brand:wikidata": "Q38076", "cuisine": "burger", "drive_through": "yes", "internet_access": "wlan", "name": "McDonald's", "opening_hours": "05:00-22:00", "phone": "+1 813-977-0076", "takeaway": "yes", "website": "https://www.mcdonalds.com/us/en-us/location/8075.html"}}, {"type": "node", "id": 1720881184, "lat": 28.0084259, "lon": -82.5045427, "tags": {"addr:city": "Tampa", "addr:housenumber": "6717", "addr:postcode": "33614", "addr:state": "FL", "addr:street": "North Dale Mabry Highway", "amenity": "fast_food", "brand": "McDonald's", "brand:website": "https://www.mcdonalds.com/", "brand:wikidata": "Q38076", "cuisine": "burger", "drive_through": "yes", "internet_access": "wlan", "name": "McDonald's", "opening_hours": "05:00-22:00", "phone": "+1 813-304-2100", "takeaway": "yes", "website": "https://www.mcdonalds.com/us/en-us/location/11242.html"}}, {"type": "node", "id": 1720889721, "lat": 28.0128033, "lon": -82.5057094}, {"type": "node", "id": 1768191614, "lat": 27.9371692, "lon": -82.4832707, "tags": {"addr:city": "Tampa", "addr:country": "US", "addr:housenumber": "701", "addr:postcode": "33609", "addr:state": "FL", "addr:street": "South Howard Avenue 105", "amenity": "fast_food", "brand": "Panera Bread", "brand:wikidata": "Q7130852", "cuisine": "sandwich;bakery", "internet_access": "wlan", "name": "Panera Bread", "opening_hours": "07:00-20:00", "outdoor_seating": "yes", "phone": "+1 813-253-5888", "short_name": "Panera", "smoking": "outside", "takeaway": "yes", "website": "https://locations.panerabread.com/fl/tampa/701-south-howard-avenue.html"}}, {"type": "node", "id": 1832738567, "lat": 27.9240077, "lon": -82.5064424, "tags": {"addr:country": "US", "addr:postcode": "33629", "addr:state": "FL", "addr:street": "South Dale Mabry Highway", "amenity": "fast_food", "brand": "Steak 'n Shake", "brand:wikidata": "Q7605233", "check_date": "2025-05-16", "cuisine": "burger", "currency:XBT": "yes", "name": "Steak 'n Shake", "outdoor_seating": "no", "payment:lightning": "yes", "payment:lightning_contactless": "no", "payment:onchain": "no", "phone": "+1 813-251-3350", "smoking": "no", "takeaway": "yes", "website": "https://www.steaknshake.com/locations/fl-tampa-s-dale-mabry/"}}, {"type": "node", "id": 1832756534, "lat": 27.9388204, "lon": -82.5062176, "tags": {"addr:city": "Tampa", "addr:country": "US", "addr:housenumber": "609", "addr:postcode": "33609", "addr:state": "FL", "addr:street": "South Dale Mabry Highway", "amenity": "fast_food", "branch": "South Dale Mabry", "brand": "Chick-fil-A", "brand:wikidata": "Q491516", "cuisine": "chicken", "delivery": "yes", "drive_through": "yes", "indoor_seating": "yes", "internet_access": "wlan", "name": "Chick-fil-A", "opening_hours": "Mo-Sa 06:00-22:00; Su off", "outdoor_seating": "yes", "phone": "+1 813-873-1938", "ref": "01399", "smoking": "outside", "takeaway": "yes", "website": "https://www.chick-fil-a.com/locations/fl/south-dale-mabry"}}, {"type": "node", "id": 1834821814, "lat": 27.9963098, "lon": -82.5664808}, {"type": "node", "id": 1940346468, "lat": 28.0230161, "lon": -82.4597461}, {"type": "node", "id": 1940346469, "lat": 28.0230161, "lon": -82.459986}, {"type": "node", "id": 1940346472, "lat": 28.0231428, "lon": -82.459986}, {"type": "node", "id": 1940346473, "lat": 28.0231451, "lon": -82.4597461}, {"type": "node", "id": 1945955110, "lat": 27.996826, "lon": -82.5172497}, {"type": "node", "id": 1945957186, "lat": 27.9965879, "lon": -82.5139556, "tags": {"addr:city": "Tampa", "addr:country": "US", "addr:housenumber": "4201", "addr:postcode": "33614", "addr:state": "FL", "addr:street": "West Hillsborough Avenue", "amenity": "fast_food", "brand": "Zaxby's", "brand:wikidata": "Q8067525", "check_date": "2024-07-10", "check_date:opening_hours": "2024-07-10", "check_date:opening_hours:drive_through": "2024-07-10", "cuisine": "chicken", "drive_through": "yes", "internet_access": "no", "name": "Zaxby's", "official_name": "Zaxby's Chicken Fingers & Buffalo Wings", "opening_hours": "Mo-Su 10:30-21:45", "opening_hours:drive_through": "Mo-Su 10:30-22:00", "outdoor_seating": "no", "phone": "+1 813-882-8300", "smoking": "no", "takeaway": "yes", "website": "https://www.zaxbys.com/locations/fl/tampa/4201-w-hillsborough-ave"}}, {"type": "node", "id": 1953461483, "lat": 27.9965585, "lon": -82.4868265, "tags": {"amenity": "fast_food", "brand": "Krystal", "brand:wikidata": "Q472195", "cuisine": "burger", "name": "Krystal", "takeaway": "yes", "website": "https://www.krystal.com/locations/fl/tampa/2625-w-hillsborough-ave/"}}, {"type": "node", "id": 1954799565, "lat": 27.996454, "lon": -82.4964933, "tags": {"addr:city": "Tampa", "addr:country": "US", "addr:postcode": "33614", "addr:state": "FL", "addr:street": "West Hillsborough Avenue", "amenity": "fast_food", "brand": "Pollo Tropical", "brand:wikidata": "Q3395356", "check_date": "2024-09-23", "check_date:opening_hours": "2024-09-23", "cuisine": "chicken", "name": "Pollo Tropical", "opening_hours": "Mo-Su 10:30-24:00", "phone": "+1 813-870-7235", "takeaway": "yes", "website": "https://locations.pollotropical.com/fl/tampa/3285-west-hillsborough-ave"}}, {"type": "node", "id": 1985845701, "lat": 27.9957263, "lon": -82.5188607, "tags": {"addr:city": "Tampa", "addr:country": "US", "addr:housenumber": "4408", "addr:postcode": "33614", "addr:state": "FL", "addr:street": "West Hillsborough Avenue", "amenity": "fast_food", "brand": "Subway", "brand:wikidata": "Q244457", "cuisine": "sandwich", "name": "Subway", "opening_hours": "08:00-02:00", "outdoor_seating": "no", "phone": "+1 813-879-5489", "smoking": "outside", "takeaway": "yes", "website": "https://restaurants.subway.com/united-states/fl/tampa/4408-w-hillsborough-avenue"}}, {"type": "node", "id": 2001937997, "lat": 28.0230193, "lon": -82.4589736}, {"type": "node", "id": 2013688889, "lat": 28.0257565, "lon": -82.4598056}, {"type": "node", "id": 2013690621, "lat": 28.0249088, "lon": -82.4598072}, {"type": "node", "id": 2131305155, "lat": 28.025122, "lon": -82.539207, "tags": {"addr:city": "Tampa", "addr:housenumber": "5620", "addr:postcode": "33634", "addr:state": "FL", "addr:street": "West Waters Avenue", "amenity": "fast_food", "brand": "Arby's", "brand:wikidata": "Q630866", "check_date": "2024-06-21", "cuisine": "sandwich", "delivery": "no", "drive_through": "yes", "name": "Arby's", "opening_hours": "10:00-22:00", "outdoor_seating": "no", "phone": "+1 813-882-3765", "smoking": "no", "takeaway": "yes", "website": "https://www.arbys.com/locations/us/fl/tampa/5620-w-waters-ave/store-7304/"}}, {"type": "node", "id": 2133219790, "lat": 28.025872, "lon": -82.5153221, "tags": {"addr:city": "Tampa", "addr:housenumber": "4311", "addr:postcode": "33614", "addr:state": "FL", "addr:street": "West Waters Avenue", "amenity": "fast_food", "brand": "Subway", "brand:wikidata": "Q244457", "cuisine": "sandwich", "delivery": "no", "drive_through": "no", "name": "Subway", "opening_hours": "Mo-Fr 08:00-21:30; Sa 09:00-21:30; Su 09:00-20:00", "outdoor_seating": "no", "phone": "+1 813-885-7667", "smoking": "outside", "takeaway": "yes", "website": "https://restaurants.subway.com/united-states/fl/tampa/4311-w-waters-ave"}}, {"type": "node", "id": 2209921487, "lat": 28.0132208, "lon": -82.4698774, "tags": {"amenity": "fast_food", "cuisine": "burger", "name": "Garden Grille"}}, {"type": "node", "id": 2209939928, "lat": 28.013862, "lon": -82.470361, "tags": {"amenity": "fast_food", "cuisine": "coffee_shop", "name": "Rango Shack"}}, {"type": "node", "id": 2209944997, "lat": 28.014406, "lon": -82.470669, "tags": {"amenity": "fast_food", "cuisine": "ice_cream", "name": "Sweet Shoppe"}}, {"type": "node", "id": 2209954071, "lat": 28.014423, "lon": -82.469682, "tags": {"amenity": "fast_food", "cuisine": "burger", "name": "Grub and Grog Restaurant"}}, {"type": "node", "id": 2209977348, "lat": 28.015423, "lon": -82.469769, "tags": {"amenity": "fast_food", "cuisine": "mexican", "name": "Tamani's Oasis"}}, {"type": "node", "id": 2210428959, "lat": 27.8929025, "lon": -82.5191018}, {"type": "node", "id": 2210428960, "lat": 27.8929025, "lon": -82.519203}, {"type": "node", "id": 2210428974, "lat": 27.8931068, "lon": -82.5190991}, {"type": "node", "id": 2210428975, "lat": 27.8931068, "lon": -82.5192002}, {"type": "node", "id": 2210428988, "lat": 27.8935977, "lon": -82.5196759}, {"type": "node", "id": 2210428989, "lat": 27.8935977, "lon": -82.5198194}, {"type": "node", "id": 2210428992, "lat": 27.893647, "lon": -82.5192494}, {"type": "node", "id": 2210428993, "lat": 27.8936399, "lon": -82.5193786}, {"type": "node", "id": 2210428994, "lat": 27.8938197, "lon": -82.5196729}, {"type": "node", "id": 2210428995, "lat": 27.8938197, "lon": -82.5197685}, {"type": "node", "id": 2210428996, "lat": 27.893856, "lon": -82.5192639}, {"type": "node", "id": 2210428997, "lat": 27.8938536, "lon": -82.519307}, {"type": "node", "id": 2210429025, "lat": 27.8944627, "lon": -82.5177368}, {"type": "node", "id": 2210429026, "lat": 27.8944643, "lon": -82.5180908}, {"type": "node", "id": 2210429029, "lat": 27.8945969, "lon": -82.517736}, {"type": "node", "id": 2210429030, "lat": 27.8945985, "lon": -82.5180901}, {"type": "node", "id": 2219933286, "lat": 27.89405, "lon": -82.506835, "tags": {"addr:city": "Tampa", "addr:housenumber": "3801", "addr:postcode": "33611", "addr:state": "FL", "addr:street": "West Gandy Boulevard", "amenity": "fast_food", "branch": "Dale Mabry", "brand": "Qdoba", "brand:wikidata": "Q1363885", "cuisine": "mexican", "delivery": "no", "drive_through": "no", "image": "http://www.flickr.com/photos/colemanm/8586725150", "name": "Qdoba", "official_name": "Qdoba Mexican Grill", "opening_hours": "Mo-Sa 11:00-21:30; Su 11:00-21:00", "phone": "+1 813-837-0101", "takeaway": "yes", "website": "https://locations.qdoba.com/us/fl/tampa/3801-w-gandy-blvd.html"}}, {"type": "node", "id": 2219943742, "lat": 27.8944586, "lon": -82.506802, "tags": {"addr:city": "corner of Dale Mabry", "addr:housenumber": "3801", "addr:postcode": "33611", "addr:state": "FL", "addr:street": "West Gandy Boulevard Northwest", "amenity": "fast_food", "brand": "Domino's", "brand:wikidata": "Q839466", "cuisine": "pizza", "delivery": "yes", "drive_through": "no", "image": "http://www.flickr.com/photos/colemanm/8586725150", "name": "Domino's", "opening_hours": "Mo-Th 10:00-24:00; Fr-Sa 10:00-01:00; Su 10:00-24:00", "outdoor_seating": "no", "phone": "+1 813-837-0591", "ref": "5004", "smoking": "outside", "takeaway": "yes", "website": "https://pizza.dominos.com/florida/tampa/3801-west-gandy-blvd--nw-corner-of-dale-mabry"}}, {"type": "node", "id": 2222970220, "lat": 28.0143173, "lon": -82.4696925, "tags": {"amenity": "fast_food", "name": "Grub & Grog"}}, {"type": "node", "id": 2259090672, "lat": 27.922235, "lon": -82.493839, "tags": {"addr:city": "Tampa", "addr:street": "South Macdill Avenue", "amenity": "fast_food", "brand": "Subway", "brand:wikidata": "Q244457", "cuisine": "sandwich", "delivery": "no", "drive_through": "no", "fixme:atp": "no ATP match, check if still exists", "name": "Subway", "outdoor_seating": "no", "takeaway": "yes"}}, {"type": "node", "id": 2282262721, "lat": 27.982002, "lon": -82.380815, "tags": {"addr:city": "Tampa", "addr:housenumber": "6620", "addr:postcode": "33619", "addr:state": "FL", "addr:street": "East Martin Luther King Boulevard", "amenity": "fast_food", "brand": "Wendy's", "brand:wikidata": "Q550258", "cuisine": "burger", "delivery": "no", "drive_through": "yes", "name": "Wendy's", "phone": "+1 813-622-7222", "takeaway": "yes", "website": "https://locations.wendys.com/united-states/fl/tampa/6620-e-martin-luther-king-blvd"}}, {"type": "node", "id": 2310128758, "lat": 28.0999406, "lon": -82.5018037}, {"type": "node", "id": 2310138419, "lat": 28.098802, "lon": -82.502899, "tags": {"addr:city": "Tampa", "addr:housenumber": "16020", "addr:postcode": "33624", "addr:state": "FL", "addr:street": "Mapledale Boulevard", "amenity": "fast_food", "brand": "Taco Bell", "brand:wikidata": "Q752941", "cuisine": "tex-mex", "delivery": "no", "drive_through": "yes", "name": "Taco Bell", "opening_hours": "Mo-Sa 07:00-03:00; Su 08:00-03:00", "outdoor_seating": "no", "phone": "+1 813-960-3702", "smoking": "outside", "takeaway": "yes", "website": "https://locations.tacobell.com/fl/tampa/16020-mapledale-blvd.html"}}, {"type": "node", "id": 2310149382, "lat": 28.0959846, "lon": -82.5016709}, {"type": "node", "id": 2310153111, "lat": 28.0958903, "lon": -82.5030121}, {"type": "node", "id": 2310167074, "lat": 28.093974, "lon": -82.50157, "tags": {"amenity": "fast_food", "brand": "Checkers", "brand:wikidata": "Q63919315", "cuisine": "burger", "delivery": "no", "drive_through": "yes", "name": "Checkers", "outdoor_seating": "yes", "smoking": "outside", "takeaway": "yes", "website": "https://checkersandrallys.com/location/checkers-5455-n-dale-mabry-hwy-140155"}}, {"type": "node", "id": 2310203869, "lat": 28.084145, "lon": -82.504071, "tags": {"addr:city": "Tampa", "addr:housenumber": "14861", "addr:postcode": "33618", "addr:state": "FL", "addr:street": "North Dale Mabry Highway", "amenity": "fast_food", "brand": "Papa John's", "brand:wikidata": "Q2759586", "cuisine": "pizza", "delivery": "yes", "name": "Papa John's", "opening_hours": "Mo-Sa 09:30-24:00; Su 09:30-23:00", "phone": "+1 813-264-7272", "takeaway": "yes", "website": "https://locations.papajohns.com/united-states/fl/33618/tampa/14861-north-dale-mabry-highway"}}, {"type": "node", "id": 2334944431, "lat": 27.945043, "lon": -82.482647, "tags": {"addr:city": "Tampa", "addr:housenumber": "101", "addr:postcode": "33606", "addr:state": "FL", "addr:street": "North Howard Avenue", "amenity": "fast_food", "brand": "Subway", "brand:wikidata": "Q244457", "cuisine": "sandwich", "drive_through": "no", "name": "Subway", "opening_hours": "Mo-We 07:00-24:00; Th-Fr 07:00-03:00; Sa 07:00-24:00; Su 08:00-24:00", "phone": "+1 813-253-6511", "takeaway": "yes", "website": "https://restaurants.subway.com/united-states/fl/tampa/101-n-howard-ave"}}, {"type": "node", "id": 2334944707, "lat": 27.9450591, "lon": -82.481692, "tags": {"amenity": "fast_food", "brand": "Jersey Mike's Subs", "brand:wikidata": "Q6184897", "cuisine": "sandwich", "name": "Jersey Mike's Subs", "short_name": "Jersey Mike's", "takeaway": "yes", "website": "https://www.jerseymikes.com/13065/tampa-fl"}}, {"type": "node", "id": 2362155169, "lat": 27.9443997, "lon": -82.475469}, {"type": "node", "id": 2362155171, "lat": 27.9443975, "lon": -82.4753342}, {"type": "node", "id": 2362155172, "lat": 27.9440418, "lon": -82.4753416}, {"type": "node", "id": 2362155174, "lat": 27.9440439, "lon": -82.4754764}, {"type": "node", "id": 2381859636, "lat": 28.1181034, "lon": -82.3793548}, {"type": "node", "id": 2381859637, "lat": 28.1180195, "lon": -82.3794391}, {"type": "node", "id": 2381859638, "lat": 28.1178322, "lon": -82.3791996}, {"type": "node", "id": 2381859639, "lat": 28.1179161, "lon": -82.3791153}, {"type": "node", "id": 2533763611, "lat": 27.925494, "lon": -82.506178, "tags": {"addr:city": "Tampa", "addr:street": "Dale Mabry Highway", "amenity": "fast_food", "brand": "PDQ", "cuisine": "chicken", "delivery": "no", "description": "Chicken tenders galore", "drive_through": "yes", "internet_access": "wlan", "name": "PDQ", "note": "Eat some", "outdoor_seating": "yes", "smoking": "outside", "takeaway": "yes", "wheelchair": "yes"}}, {"type": "node", "id": 2545280250, "lat": 27.9374876, "lon": -82.4823557, "tags": {"amenity": "fast_food", "brand": "Smoothie King", "brand:wikidata": "Q5491421", "cuisine": "juice", "name": "Smoothie King", "takeaway": "yes", "wheelchair": "yes"}}, {"type": "node", "id": 2641009260, "lat": 27.960499, "lon": -82.441588, "tags": {"addr:city": "Tampa", "addr:housenumber": "1600", "addr:postcode": "33605", "addr:state": "FL", "addr:street": "East 8th Avenue", "addr:unit": "D", "amenity": "fast_food", "brand": "Jimmy John's", "brand:wikidata": "Q1689380", "cuisine": "sandwich", "name": "Jimmy John's", "official_name": "Jimmy John's Gourmet Sandwiches", "phone": "+1 813-241-9600", "takeaway": "yes", "website": "https://locations.jimmyjohns.com/fl/tampa/sandwiches-1831.html", "wheelchair": "yes"}}, {"type": "node", "id": 2641201984, "lat": 27.9464261, "lon": -82.4585193, "tags": {"addr:city": "Tampa", "addr:housenumber": "200", "addr:postcode": "33602", "addr:state": "FL", "addr:street": "North Tampa Street", "addr:unit": "G-120", "amenity": "fast_food", "brand": "Tropical Smoothie Cafe", "brand:wikidata": "Q7845817", "cuisine": "juice", "internet_access": "wlan", "name": "Tropical Smoothie Cafe", "outdoor_seating": "yes", "takeaway": "yes"}}, {"type": "node", "id": 2740047885, "lat": 27.937873, "lon": -82.506159, "tags": {"addr:city": "Tampa", "addr:housenumber": "619", "addr:postcode": "33609", "addr:state": "FL", "addr:street": "South Dale Mabry Highway", "alt_name": "Einstein Brothers Bagels", "amenity": "fast_food", "branch": "Dale Mabry Highway & Swann Avenue", "brand": "Einstein Bros. Bagels", "brand:wikidata": "Q5349788", "cuisine": "bagel", "name": "Einstein Bros. Bagels", "opening_hours": "Mo-Fr 05:30-14:00; Sa-Su 06:00-14:00", "phone": "+1 813-871-1074", "takeaway": "yes", "website": "https://locations.einsteinbros.com/us/fl/tampa/619-s-dale-mabry-hwy"}}, {"type": "node", "id": 2781304964, "lat": 27.892994, "lon": -82.524619, "tags": {"addr:city": "Tampa", "addr:street": "Gandy Boulevard", "amenity": "fast_food", "brand": "Subway", "brand:wikidata": "Q244457", "cuisine": "sandwich", "delivery": "no", "drive_through": "no", "fixme:atp": "no ATP match, check if still exists", "name": "Subway", "outdoor_seating": "no", "smoking": "no", "takeaway": "yes"}}, {"type": "node", "id": 2789190600, "lat": 27.939062, "lon": -82.483377, "tags": {"addr:city": "Tampa", "addr:housenumber": "533", "addr:postcode": "33606", "addr:state": "FL", "addr:street": "South Howard Avenue", "amenity": "fast_food", "brand": "Jimmy John's", "brand:wikidata": "Q1689380", "cuisine": "sandwich", "drive_in": "no", "drive_through": "no", "name": "Jimmy John's", "official_name": "Jimmy John's Gourmet Sandwiches", "phone": "+1 813-849-9050", "takeaway": "yes", "website": "https://locations.jimmyjohns.com/fl/tampa/sandwiches-1307.html", "wheelchair": "yes"}}, {"type": "node", "id": 2903719954, "lat": 27.9957974, "lon": -82.4304739, "tags": {"addr:city": "Tampa", "addr:housenumber": "2601", "addr:postcode": "33610-4409", "addr:state": "FL", "addr:street": "East Hillsborough Avenue", "amenity": "fast_food", "brand": "Burger King", "brand:wikidata": "Q177054", "cuisine": "burger", "delivery": "yes", "drive_through": "yes", "name": "Burger King", "opening_hours": "Mo-Th 05:00-24:00; Fr-Sa 05:00-01:00; Su 05:00-24:00", "phone": "+1 813-238-6707", "ref": "1981", "smoking": "no", "takeaway": "yes", "website": "https://www.bk.com/store-locator/store/restaurant_1036"}}, {"type": "node", "id": 2903719955, "lat": 27.9958015, "lon": -82.434378, "tags": {"addr:city": "Tampa", "addr:housenumber": "2201", "addr:postcode": "33610", "addr:state": "FL", "addr:street": "East Hillsborough Avenue", "amenity": "fast_food", "brand": "Popeyes", "brand:wikidata": "Q1330910", "cuisine": "chicken", "delivery": "yes", "drive_through": "yes", "indoor_seating": "yes", "name": "Popeyes", "official_name": "Popeyes Louisiana Kitchen", "opening_hours": "10:00-22:00", "phone": "+1 813-239-1922", "takeaway": "yes", "website": "https://www.popeyes.com/store-locator/store/restaurant_82802"}}, {"type": "node", "id": 3133024248, "lat": 27.9468155, "lon": -82.5271899, "tags": {"addr:city": "Tampa", "addr:housenumber": "241", "addr:postcode": "33609", "addr:state": "FL", "addr:street": "Westshore Plaza", "addr:unit": "A", "amenity": "fast_food", "branch": "Westshore Plaza", "brand": "Chick-fil-A", "brand:wikidata": "Q491516", "cuisine": "chicken", "delivery": "yes", "drive_through": "yes", "indoor_seating": "no", "name": "Chick-fil-A", "opening_hours": "Mo-Th 11:00-20:00; Fr-Sa 11:00-21:00; Su off", "phone": "+1 813-291-0615", "ref": "00330", "takeaway": "yes", "website": "https://www.chick-fil-a.com/locations/fl/westshore-plaza"}}, {"type": "node", "id": 3133145194, "lat": 27.9968368, "lon": -82.3901425}, {"type": "node", "id": 3133145195, "lat": 27.9968391, "lon": -82.3899655}, {"type": "node", "id": 3133145196, "lat": 27.9966364, "lon": -82.389962}, {"type": "node", "id": 3133145197, "lat": 27.9966341, "lon": -82.390139}, {"type": "node", "id": 3133145198, "lat": 27.9956903, "lon": -82.3861901, "tags": {"addr:city": "Tampa", "addr:housenumber": "6217", "addr:postcode": "33610", "addr:state": "FL", "addr:street": "East Hillsborough Avenue", "addr:unit": "109", "amenity": "fast_food", "brand": "Subway", "brand:wikidata": "Q244457", "cuisine": "sandwich", "name": "Subway", "opening_hours": "Mo-Fr 07:00-21:00; Sa 08:00-19:00; Su 08:00-18:00", "phone": "+1 813-626-5085", "takeaway": "yes", "website": "https://restaurants.subway.com/united-states/fl/tampa/6217-e-hillsborough-ave"}}, {"type": "node", "id": 3133145207, "lat": 27.9965121, "lon": -82.4240837}, {"type": "node", "id": 3133145208, "lat": 27.9964311, "lon": -82.4240832}, {"type": "node", "id": 3133145209, "lat": 27.9964321, "lon": -82.4238601}, {"type": "node", "id": 3133145210, "lat": 27.9965151, "lon": -82.4238606}, {"type": "node", "id": 3133145865, "lat": 27.9958544, "lon": -82.4427329}, {"type": "node", "id": 3133145866, "lat": 27.9958563, "lon": -82.4426076}, {"type": "node", "id": 3133145867, "lat": 27.9956358, "lon": -82.4426031}, {"type": "node", "id": 3133145868, "lat": 27.9956338, "lon": -82.4427284}, {"type": "node", "id": 3133145907, "lat": 27.996626, "lon": -82.5014079}, {"type": "node", "id": 3133145908, "lat": 27.9966447, "lon": -82.501286}, {"type": "node", "id": 3133145909, "lat": 27.9963873, "lon": -82.5012934}, {"type": "node", "id": 3133145910, "lat": 27.9963912, "lon": -82.5014079}, {"type": "node", "id": 3180733948, "lat": 27.9810862, "lon": -82.387043}, {"type": "node", "id": 3180733949, "lat": 27.9809425, "lon": -82.386996}, {"type": "node", "id": 3180733950, "lat": 27.9809384, "lon": -82.3866521}, {"type": "node", "id": 3180733951, "lat": 27.9810816, "lon": -82.38665}, {"type": "node", "id": 3327155283, "lat": 27.8930964, "lon": -82.5051252}, {"type": "node", "id": 3353159852, "lat": 27.96503, "lon": -82.521016, "tags": {"addr:city": "Tampa", "addr:country": "US", "addr:housenumber": "Suite C203", "addr:postcode": "33607", "addr:state": "FL", "addr:street": "International Plaza", "amenity": "fast_food", "brand": "Burger King", "brand:wikidata": "Q177054", "cuisine": "burger", "drive_through": "no", "internet_access": "no", "name": "Burger King", "outdoor_seating": "no", "smoking": "no", "takeaway": "yes"}}, {"type": "node", "id": 3353159854, "lat": 27.965136, "lon": -82.52114, "tags": {"addr:city": "Tampa", "addr:country": "US", "addr:housenumber": "Suite C201", "addr:postcode": "33607", "addr:state": "FL", "addr:street": "International Plaza", "amenity": "fast_food", "branch": "Grilled Subs", "brand": "Charleys Philly Steaks", "brand:wikidata": "Q1066777", "cuisine": "sandwich", "drive_through": "no", "internet_access": "no", "name": "Charleys Philly Steaks", "outdoor_seating": "no", "smoking": "no", "takeaway": "yes"}}, {"type": "node", "id": 3353159856, "lat": 27.965064, "lon": -82.521086, "tags": {"addr:city": "Tampa", "addr:country": "US", "addr:housenumber": "Suite C202", "addr:postcode": "33607", "addr:state": "FL", "addr:street": "International Plaza", "addr:unit": "FC202", "amenity": "fast_food", "branch": "International Plaza Mall", "brand": "Chick-fil-A", "brand:wikidata": "Q491516", "cuisine": "chicken", "delivery": "yes", "drive_through": "no", "indoor_seating": "no", "internet_access": "no", "name": "Chick-fil-A", "opening_hours": "Mo-Tu 11:00-19:00; We 11:45-19:00; Th 11:00-19:00; Fr-Sa 11:00-20:00; Su off", "outdoor_seating": "no", "phone": "+1 813-354-8100", "ref": "01279", "smoking": "no", "takeaway": "yes", "website": "https://www.chick-fil-a.com/locations/fl/international-plaza-mall"}}, {"type": "node", "id": 3353159860, "lat": 27.965001, "lon": -82.520961, "tags": {"addr:city": "Tampa", "addr:country": "US", "addr:housenumber": "Suite C204", "addr:postcode": "33607", "addr:state": "FL", "addr:street": "International Plaza", "amenity": "fast_food", "brand": "Great Wraps", "brand:wikidata": "Q5600272", "cuisine": "burrito", "drive_through": "no", "internet_access": "no", "name": "Great Wraps", "outdoor_seating": "no", "smoking": "no", "takeaway": "yes"}}, {"type": "node", "id": 3353159863, "lat": 27.9641876, "lon": -82.5219653, "tags": {"addr:city": "Tampa", "addr:country": "US", "addr:housenumber": "Suite C208", "addr:postcode": "33607", "addr:state": "FL", "addr:street": "International Plaza", "amenity": "fast_food", "cuisine": "chinese", "drive_through": "no", "internet_access": "no", "name": "Lotus Express", "outdoor_seating": "no", "smoking": "no", "takeaway": "yes"}}, {"type": "node", "id": 3353159865, "lat": 27.964965, "lon": -82.520771, "tags": {"addr:city": "Tampa", "addr:country": "US", "addr:housenumber": "Suite 207", "addr:postcode": "33607", "addr:state": "FL", "addr:street": "International Plaza", "amenity": "fast_food", "brand": "Sbarro", "brand:wikidata": "Q2589409", "cuisine": "pizza", "drive_through": "no", "internet_access": "no", "name": "Sbarro", "outdoor_seating": "no", "smoking": "no", "takeaway": "yes"}}, {"type": "node", "id": 3353159868, "lat": 27.964973, "lon": -82.520849, "tags": {"addr:city": "Tampa", "addr:country": "US", "addr:housenumber": "Suite C206", "addr:postcode": "33607", "addr:state": "FL", "addr:street": "International Plaza", "amenity": "fast_food", "brand": "Subway", "brand:wikidata": "Q244457", "cuisine": "sandwich", "drive_through": "no", "fixme:atp": "no ATP match, check if still exists", "internet_access": "no", "name": "Subway", "outdoor_seating": "no", "smoking": "no", "takeaway": "yes"}}, {"type": "node", "id": 3353159869, "lat": 27.964989, "lon": -82.520911, "tags": {"addr:city": "Tampa", "addr:country": "US", "addr:housenumber": "Suite C205", "addr:postcode": "33607", "addr:state": "FL", "addr:street": "International Plaza", "amenity": "fast_food", "branch": "Japan", "brand": "Suki Hana", "brand:wikidata": "Q108413837", "cuisine": "japanese", "drive_through": "no", "internet_access": "no", "name": "Suki Hana", "outdoor_seating": "no", "smoking": "no", "takeaway": "yes"}}, {"type": "node", "id": 3394783492, "lat": 27.8945323, "lon": -82.5067956, "tags": {"amenity": "fast_food", "cuisine": "chinese", "delivery": "yes", "name": "New China", "takeaway": "yes"}}, {"type": "node", "id": 3622598835, "lat": 28.0081074, "lon": -82.3754936}, {"type": "node", "id": 3622598849, "lat": 28.0080392, "lon": -82.3755681}, {"type": "node", "id": 3622598850, "lat": 28.0080397, "lon": -82.3758236}, {"type": "node", "id": 3622598851, "lat": 28.0080284, "lon": -82.3758237}, {"type": "node", "id": 3622598852, "lat": 28.0080286, "lon": -82.3759561}, {"type": "node", "id": 3622598853, "lat": 28.00806, "lon": -82.375956}, {"type": "node", "id": 3622598854, "lat": 28.00806, "lon": -82.3759859}, {"type": "node", "id": 3622598855, "lat": 28.0079839, "lon": -82.3759861}, {"type": "node", "id": 3622598856, "lat": 28.0079839, "lon": -82.3760401}, {"type": "node", "id": 3622598857, "lat": 28.0080164, "lon": -82.3760401}, {"type": "node", "id": 3622598858, "lat": 28.0080166, "lon": -82.3761123}, {"type": "node", "id": 3622598859, "lat": 28.0080391, "lon": -82.3761122}, {"type": "node", "id": 3622598860, "lat": 28.008039, "lon": -82.3760423}, {"type": "node", "id": 3622598861, "lat": 28.0080491, "lon": -82.3760423}, {"type": "node", "id": 3622598862, "lat": 28.0080491, "lon": -82.3760924}, {"type": "node", "id": 3622598863, "lat": 28.0083255, "lon": -82.3760918}, {"type": "node", "id": 3622598864, "lat": 28.0083251, "lon": -82.375845}, {"type": "node", "id": 3622598865, "lat": 28.0085021, "lon": -82.3757691}, {"type": "node", "id": 3622598866, "lat": 28.0084722, "lon": -82.3757159}, {"type": "node", "id": 3622598867, "lat": 28.0084719, "lon": -82.375587}, {"type": "node", "id": 3622598868, "lat": 28.0085129, "lon": -82.375587}, {"type": "node", "id": 3622598869, "lat": 28.0085128, "lon": -82.3754927}, {"type": "node", "id": 3622598870, "lat": 28.0082513, "lon": -82.3754933}, {"type": "node", "id": 3622598871, "lat": 28.0082514, "lon": -82.3754377}, {"type": "node", "id": 3622598872, "lat": 28.0082274, "lon": -82.3754374}, {"type": "node", "id": 3622598873, "lat": 28.0082275, "lon": -82.3754933}, {"type": "node", "id": 3622598874, "lat": 28.0081075, "lon": -82.375568}, {"type": "node", "id": 3622598875, "lat": 28.0085022, "lon": -82.3758445}, {"type": "node", "id": 3622598876, "lat": 28.008502, "lon": -82.3757158}, {"type": "node", "id": 3622598898, "lat": 28.0081607, "lon": -82.3760922}, {"type": "node", "id": 3622598916, "lat": 28.0081014, "lon": -82.3760923}, {"type": "node", "id": 3622598947, "lat": 28.0082511, "lon": -82.3754717}, {"type": "node", "id": 3622598950, "lat": 28.0082689, "lon": -82.3754929}, {"type": "node", "id": 3622598951, "lat": 28.0083287, "lon": -82.3754935}, {"type": "node", "id": 3723487910, "lat": 28.0876792, "lon": -82.4604485, "tags": {"addr:city": "Tampa", "addr:housenumber": "104", "addr:postcode": "33613", "addr:state": "FL", "addr:street": "West Bearss Avenue", "amenity": "fast_food", "brand": "McDonald's", "brand:wikidata": "Q38076", "cuisine": "burger", "drive_through": "yes", "internet_access": "wlan", "name": "McDonald's", "opening_hours": "05:00-24:00", "phone": "+1 813-962-8573", "takeaway": "yes", "website": "https://www.mcdonalds.com/us/en-us/location/6295.html"}}, {"type": "node", "id": 3729509132, "lat": 27.8718473, "lon": -82.5068485, "tags": {"addr:city": "Tampa", "addr:housenumber": "6505", "addr:postcode": "33611", "addr:state": "FL", "addr:street": "South Dale Mabry Drive", "amenity": "fast_food", "brand": "McDonald's", "brand:wikidata": "Q38076", "cuisine": "burger", "drive_through": "yes", "internet_access": "wlan", "name": "McDonald's", "opening_hours": "05:00-22:00", "phone": "+1 813-839-5252", "takeaway": "yes", "website": "https://www.mcdonalds.com/us/en-us/location/7879.html"}}, {"type": "node", "id": 3733398747, "lat": 28.0263288, "lon": -82.5599479}, {"type": "node", "id": 3784109914, "lat": 28.0639515, "lon": -82.4138511, "tags": {"addr:city": "Tampa", "addr:housenumber": "4103", "addr:postcode": "33620", "addr:state": "FL", "addr:street": "USF Cedar Circle", "amenity": "fast_food", "branch": "University of South Florida", "brand": "Panda Express", "brand:wikidata": "Q1358690", "cuisine": "chinese", "name": "Panda Express", "opening_hours": "Mo-Th 10:30-19:00; Fr 10:30-16:00", "phone": "+1 813-974-9587", "takeaway": "yes", "website": "https://www.pandaexpress.com/locations/fl/tampa/2186"}}, {"type": "node", "id": 3812756188, "lat": 28.0322543, "lon": -82.4222892, "tags": {"addr:city": "Tampa", "addr:housenumber": "3411", "addr:postcode": "33612", "addr:state": "FL", "addr:street": "East Busch Boulevard", "amenity": "fast_food", "brand": "McDonald's", "brand:wikidata": "Q38076", "cuisine": "burger", "drive_through": "yes", "internet_access": "wlan", "name": "McDonald's", "opening_hours": "05:00-22:00", "phone": "+1 813-988-6700", "takeaway": "yes", "website": "https://www.mcdonalds.com/us/en-us/location/569.html"}}, {"type": "node", "id": 3812756189, "lat": 28.0322022, "lon": -82.425465, "tags": {"addr:city": "Tampa", "addr:housenumber": "3009", "addr:postcode": "33612", "addr:state": "FL", "addr:street": "East Busch Boulevard", "amenity": "fast_food", "brand": "Burger King", "brand:wikidata": "Q177054", "cuisine": "burger", "drive_through": "yes", "name": "Burger King", "opening_hours": "Mo-Th 05:00-24:00; Fr-Sa 05:00-01:00; Su 05:00-24:00", "phone": "+1 813-374-0105", "ref": "4981", "takeaway": "yes", "website": "https://www.bk.com/store-locator/store/restaurant_2780"}}, {"type": "node", "id": 3884841458, "lat": 27.9449878, "lon": -82.5229658}, {"type": "node", "id": 4458491089, "lat": 27.9808615, "lon": -82.499098, "tags": {"addr:city": "Tampa", "addr:housenumber": "3420", "addr:postcode": "33607", "addr:state": "FL", "addr:street": "West Drive Martin Luther King Jr Boulevard", "amenity": "fast_food", "brand": "Panera Bread", "brand:wikidata": "Q7130852", "cuisine": "sandwich;bakery", "name": "Panera Bread", "name:en": "Panera Bread", "opening_hours": "Mo-Fr 06:30-21:30; Sa 07:00-21:30; Su 07:00-21:00", "phone": "+1 813-443-4909", "short_name": "Panera", "takeaway": "yes", "website": "https://locations.panerabread.com/fl/tampa/3420-w-dr-mlk-jr-blvd.html"}}, {"type": "node", "id": 4717276773, "lat": 27.9445677, "lon": -82.5220308, "tags": {"addr:city": "Tampa", "addr:housenumber": "4546", "addr:postcode": "33609", "addr:state": "FL", "addr:street": "Kennedy Boulevard", "amenity": "fast_food", "brand": "Jimmy John's", "brand:wikidata": "Q1689380", "cuisine": "sandwich", "name": "Jimmy John's", "official_name": "Jimmy John's Gourmet Sandwiches", "phone": "+1 813-288-7322", "takeaway": "yes", "website": "https://locations.jimmyjohns.com/fl/tampa/sandwiches-1562.html"}}, {"type": "node", "id": 4888613130, "lat": 28.0882298, "lon": -82.4509683}, {"type": "node", "id": 4888613131, "lat": 28.0882511, "lon": -82.4509683}, {"type": "node", "id": 4888613132, "lat": 28.0882511, "lon": -82.4510957}, {"type": "node", "id": 4888613133, "lat": 28.0882298, "lon": -82.4508195}, {"type": "node", "id": 4888613134, "lat": 28.0883599, "lon": -82.4508195}, {"type": "node", "id": 4888613135, "lat": 28.0883599, "lon": -82.4510957}, {"type": "node", "id": 4888613142, "lat": 27.9960587, "lon": -82.5721007}, {"type": "node", "id": 4888613143, "lat": 27.9963053, "lon": -82.5721195}, {"type": "node", "id": 4888613144, "lat": 27.9963072, "lon": -82.5722378}, {"type": "node", "id": 4888613145, "lat": 27.9960609, "lon": -82.5722428}, {"type": "node", "id": 5090002287, "lat": 27.9968252, "lon": -82.517146}, {"type": "node", "id": 5090002297, "lat": 27.9965165, "lon": -82.5172265}, {"type": "node", "id": 5090002298, "lat": 27.9965158, "lon": -82.5171493}, {"type": "node", "id": 5090002299, "lat": 27.9965736, "lon": -82.5172523}, {"type": "node", "id": 5090002300, "lat": 27.9965734, "lon": -82.5172259}, {"type": "node", "id": 5090102349, "lat": 27.99645, "lon": -82.5014226}, {"type": "node", "id": 5090102350, "lat": 27.9965264, "lon": -82.50142}, {"type": "node", "id": 5090102351, "lat": 27.9965261, "lon": -82.5014104}, {"type": "node", "id": 5090102353, "lat": 27.9964494, "lon": -82.5014061}, {"type": "node", "id": 5090102371, "lat": 27.9966236, "lon": -82.5013402}, {"type": "node", "id": 5090102372, "lat": 27.9966464, "lon": -82.5013394}, {"type": "node", "id": 5090844130, "lat": 27.9971543, "lon": -82.5793096}, {"type": "node", "id": 5090844146, "lat": 27.996936, "lon": -82.579315}, {"type": "node", "id": 5090844148, "lat": 27.9969397, "lon": -82.5795098}, {"type": "node", "id": 5090844366, "lat": 27.9974395, "lon": -82.5822653}, {"type": "node", "id": 5090844368, "lat": 27.997535, "lon": -82.5823596}, {"type": "node", "id": 5090844370, "lat": 27.9976895, "lon": -82.5821588}, {"type": "node", "id": 5090844372, "lat": 27.9975939, "lon": -82.5820645}, {"type": "node", "id": 5090853073, "lat": 27.9970641, "lon": -82.5651485}, {"type": "node", "id": 5090853077, "lat": 27.996831, "lon": -82.565247}, {"type": "node", "id": 5090853079, "lat": 27.9970641, "lon": -82.5652439}, {"type": "node", "id": 5090853096, "lat": 27.996831, "lon": -82.5651516}, {"type": "node", "id": 5090853240, "lat": 27.9969438, "lon": -82.5696043}, {"type": "node", "id": 5090853247, "lat": 27.9972733, "lon": -82.5696}, {"type": "node", "id": 5090853251, "lat": 27.9969438, "lon": -82.5697506}, {"type": "node", "id": 5090853253, "lat": 27.9972733, "lon": -82.5697463}, {"type": "node", "id": 5090859203, "lat": 27.9968642, "lon": -82.5645062}, {"type": "node", "id": 5090859205, "lat": 27.9968644, "lon": -82.5645706}, {"type": "node", "id": 5090859207, "lat": 27.9970359, "lon": -82.56457}, {"type": "node", "id": 5090859208, "lat": 27.9970357, "lon": -82.5645055}, {"type": "node", "id": 5092426287, "lat": 27.9957526, "lon": -82.3878627}, {"type": "node", "id": 5092426288, "lat": 27.9957545, "lon": -82.3876505}, {"type": "node", "id": 5092455056, "lat": 27.9956159, "lon": -82.3878077}, {"type": "node", "id": 5092455058, "lat": 27.9955293, "lon": -82.3876499}, {"type": "node", "id": 5092455059, "lat": 27.9955275, "lon": -82.3878071}, {"type": "node", "id": 5092463180, "lat": 27.9809902, "lon": -82.3869953}, {"type": "node", "id": 5092463181, "lat": 27.9809908, "lon": -82.3870444}, {"type": "node", "id": 5092583279, "lat": 27.9958317, "lon": -82.4241597}, {"type": "node", "id": 5092583280, "lat": 27.9957417, "lon": -82.4241603}, {"type": "node", "id": 5092583281, "lat": 27.9957423, "lon": -82.424267}, {"type": "node", "id": 5092583286, "lat": 27.9958322, "lon": -82.4242664}, {"type": "node", "id": 5092673059, "lat": 27.9963954, "lon": -82.4134677}, {"type": "node", "id": 5092673060, "lat": 27.9963914, "lon": -82.4133489}, {"type": "node", "id": 5092673061, "lat": 27.996598, "lon": -82.4133402}, {"type": "node", "id": 5092673062, "lat": 27.996602, "lon": -82.4134589}, {"type": "node", "id": 5092679469, "lat": 27.9963864, "lon": -82.4207745}, {"type": "node", "id": 5092679478, "lat": 27.9963859, "lon": -82.4206784}, {"type": "node", "id": 5092679479, "lat": 27.9965755, "lon": -82.4206771}, {"type": "node", "id": 5092679480, "lat": 27.996576, "lon": -82.4207732}, {"type": "node", "id": 5092868168, "lat": 27.9961407, "lon": -82.5664814}, {"type": "node", "id": 5092868170, "lat": 27.9963094, "lon": -82.566355}, {"type": "node", "id": 5092868171, "lat": 27.9961403, "lon": -82.5663556}, {"type": "node", "id": 5092903210, "lat": 28.0113607, "lon": -82.3940183}, {"type": "node", "id": 5092903211, "lat": 28.0113619, "lon": -82.3941988}, {"type": "node", "id": 5092903212, "lat": 28.011586, "lon": -82.3941969}, {"type": "node", "id": 5092903213, "lat": 28.0115848, "lon": -82.3940164}, {"type": "node", "id": 5093338723, "lat": 27.9998189, "lon": -82.4593308}, {"type": "node", "id": 5093338724, "lat": 27.9999484, "lon": -82.4592429}, {"type": "node", "id": 5093338725, "lat": 27.9998193, "lon": -82.4592423}, {"type": "node", "id": 5093338726, "lat": 27.999948, "lon": -82.4593315}, {"type": "node", "id": 5093914325, "lat": 27.8628872, "lon": -82.4998859}, {"type": "node", "id": 5093914326, "lat": 27.8627752, "lon": -82.4998863}, {"type": "node", "id": 5093914327, "lat": 27.8627744, "lon": -82.4996181}, {"type": "node", "id": 5093914328, "lat": 27.8628864, "lon": -82.4996177}, {"type": "node", "id": 5094416441, "lat": 28.0294434, "lon": -82.5043697}, {"type": "node", "id": 5094416442, "lat": 28.029444, "lon": -82.5044213}, {"type": "node", "id": 5094416443, "lat": 28.0294445, "lon": -82.5044728}, {"type": "node", "id": 5094416444, "lat": 28.0293964, "lon": -82.5044735}, {"type": "node", "id": 5094416445, "lat": 28.0293959, "lon": -82.5044219}, {"type": "node", "id": 5094416446, "lat": 28.0293478, "lon": -82.5044226}, {"type": "node", "id": 5094416447, "lat": 28.0292515, "lon": -82.5044239}, {"type": "node", "id": 5094416448, "lat": 28.029251, "lon": -82.5043724}, {"type": "node", "id": 5094416449, "lat": 28.0292499, "lon": -82.5042693}, {"type": "node", "id": 5094416450, "lat": 28.0293461, "lon": -82.5042679}, {"type": "node", "id": 5094416451, "lat": 28.0293942, "lon": -82.5042673}, {"type": "node", "id": 5094416452, "lat": 28.0293947, "lon": -82.5043188}, {"type": "node", "id": 5094416453, "lat": 28.0294428, "lon": -82.5043182}, {"type": "node", "id": 5095263329, "lat": 28.023565, "lon": -82.5827726}, {"type": "node", "id": 5095263330, "lat": 28.0235619, "lon": -82.582468}, {"type": "node", "id": 5095263331, "lat": 28.0236096, "lon": -82.582468}, {"type": "node", "id": 5095263332, "lat": 28.0236103, "lon": -82.5824899}, {"type": "node", "id": 5095263333, "lat": 28.0236843, "lon": -82.5824866}, {"type": "node", "id": 5095263334, "lat": 28.0236861, "lon": -82.5827711}, {"type": "node", "id": 5095319635, "lat": 27.8937755, "lon": -82.5197691}, {"type": "node", "id": 5095319636, "lat": 27.893776, "lon": -82.519817}, {"type": "node", "id": 5095319659, "lat": 27.8938954, "lon": -82.5193099}, {"type": "node", "id": 5095319660, "lat": 27.8938907, "lon": -82.519396}, {"type": "node", "id": 5095423486, "lat": 27.9067218, "lon": -82.5058486}, {"type": "node", "id": 5095423487, "lat": 27.9068313, "lon": -82.5058468}, {"type": "node", "id": 5095423489, "lat": 27.9067854, "lon": -82.5056113}, {"type": "node", "id": 5095423492, "lat": 27.9067215, "lon": -82.5056124}, {"type": "node", "id": 5095423496, "lat": 27.906783, "lon": -82.505564}, {"type": "node", "id": 5095433313, "lat": 27.9072743, "lon": -82.5058068}, {"type": "node", "id": 5095433315, "lat": 27.907159, "lon": -82.505613}, {"type": "node", "id": 5095433316, "lat": 27.9071569, "lon": -82.5058051}, {"type": "node", "id": 5095433318, "lat": 27.9072764, "lon": -82.5056146}, {"type": "node", "id": 5095618883, "lat": 27.9108566, "lon": -82.5069016}, {"type": "node", "id": 5095618886, "lat": 27.9109691, "lon": -82.5069016}, {"type": "node", "id": 5095618888, "lat": 27.9108604, "lon": -82.5065506}, {"type": "node", "id": 5095618889, "lat": 27.9109729, "lon": -82.5065522}, {"type": "node", "id": 5095848593, "lat": 28.0263031, "lon": -82.5820373}, {"type": "node", "id": 5095848594, "lat": 28.0264213, "lon": -82.5820367}, {"type": "node", "id": 5095848599, "lat": 28.0264219, "lon": -82.5822087}, {"type": "node", "id": 5095848600, "lat": 28.0263038, "lon": -82.5822093}, {"type": "node", "id": 5095909555, "lat": 28.0255592, "lon": -82.5620242}, {"type": "node", "id": 5095909556, "lat": 28.0255616, "lon": -82.5618584}, {"type": "node", "id": 5095909558, "lat": 28.0253004, "lon": -82.5618684}, {"type": "node", "id": 5095909561, "lat": 28.0252684, "lon": -82.5619983}, {"type": "node", "id": 5098533838, "lat": 28.0451347, "lon": -82.505493}, {"type": "node", "id": 5098543556, "lat": 28.0449944, "lon": -82.5051435}, {"type": "node", "id": 5098544038, "lat": 28.0451152, "lon": -82.5051352}, {"type": "node", "id": 5098821511, "lat": 28.024909, "lon": -82.4600461}, {"type": "node", "id": 5098828812, "lat": 28.0248111, "lon": -82.4600461}, {"type": "node", "id": 5098836444, "lat": 28.024811, "lon": -82.4598073}, {"type": "node", "id": 5099294679, "lat": 27.9906426, "lon": -82.357994}, {"type": "node", "id": 5099296465, "lat": 27.9907095, "lon": -82.3577151}, {"type": "node", "id": 5099297989, "lat": 27.9907407, "lon": -82.3579787}, {"type": "node", "id": 5099305569, "lat": 27.9906132, "lon": -82.3577331}, {"type": "node", "id": 5099434048, "lat": 28.025755, "lon": -82.4599918}, {"type": "node", "id": 5099446851, "lat": 28.0257061, "lon": -82.4599913}, {"type": "node", "id": 5099454419, "lat": 28.0257076, "lon": -82.4598051}, {"type": "node", "id": 5099455310, "lat": 28.0229168, "lon": -82.4589744}, {"type": "node", "id": 5099455462, "lat": 28.0230209, "lon": -82.4592442}, {"type": "node", "id": 5099456121, "lat": 28.0229184, "lon": -82.459245}, {"type": "node", "id": 5099520000, "lat": 28.0639183, "lon": -82.552159}, {"type": "node", "id": 5099520007, "lat": 28.064013, "lon": -82.552265}, {"type": "node", "id": 5099520296, "lat": 28.0637449, "lon": -82.5522427}, {"type": "node", "id": 5099520303, "lat": 28.0637661, "lon": -82.5523613}, {"type": "node", "id": 5099520563, "lat": 28.0638028, "lon": -82.5522202}, {"type": "node", "id": 5099520570, "lat": 28.0637836, "lon": -82.5522271}, {"type": "node", "id": 5099520577, "lat": 28.0637507, "lon": -82.5523148}, {"type": "node", "id": 5099520680, "lat": 28.0639248, "lon": -82.5521785}, {"type": "node", "id": 5099520687, "lat": 28.0638409, "lon": -82.5522047}, {"type": "node", "id": 5099520694, "lat": 28.06378, "lon": -82.5522164}, {"type": "node", "id": 5099520702, "lat": 28.0637667, "lon": -82.5523084}, {"type": "node", "id": 5099520852, "lat": 28.0639785, "lon": -82.5521569}, {"type": "node", "id": 5099520859, "lat": 28.0638364, "lon": -82.552191}, {"type": "node", "id": 5099520866, "lat": 28.063799, "lon": -82.5522086}, {"type": "node", "id": 5099624253, "lat": 28.0286287, "lon": -82.39311}, {"type": "node", "id": 5099624374, "lat": 28.0286435, "lon": -82.3929874}, {"type": "node", "id": 5099624662, "lat": 28.0285003, "lon": -82.3930082}, {"type": "node", "id": 5099625080, "lat": 28.0284867, "lon": -82.3931133}, {"type": "node", "id": 5099625267, "lat": 28.028585, "lon": -82.3929346}, {"type": "node", "id": 5099625452, "lat": 28.0285845, "lon": -82.3931472}, {"type": "node", "id": 5099625687, "lat": 28.0285443, "lon": -82.3929343}, {"type": "node", "id": 5099625838, "lat": 28.0286286, "lon": -82.3930521}, {"type": "node", "id": 5099626053, "lat": 28.0284855, "lon": -82.3929596}, {"type": "node", "id": 5099626439, "lat": 28.0285003, "lon": -82.3930731}, {"type": "node", "id": 5099626857, "lat": 28.0286315, "lon": -82.3929873}, {"type": "node", "id": 5099627271, "lat": 28.0285852, "lon": -82.3929154}, {"type": "node", "id": 5099627605, "lat": 28.0285845, "lon": -82.3931101}, {"type": "node", "id": 5099627703, "lat": 28.0284984, "lon": -82.3931132}, {"type": "node", "id": 5099628315, "lat": 28.0285091, "lon": -82.3929344}, {"type": "node", "id": 5099628593, "lat": 28.0286435, "lon": -82.393052}, {"type": "node", "id": 5099628607, "lat": 28.0284855, "lon": -82.3930081}, {"type": "node", "id": 5099629196, "lat": 28.0284867, "lon": -82.3930732}, {"type": "node", "id": 5099629214, "lat": 28.0286314, "lon": -82.3929344}, {"type": "node", "id": 5099629546, "lat": 28.0284985, "lon": -82.3931476}, {"type": "node", "id": 5099629805, "lat": 28.0285442, "lon": -82.3929155}, {"type": "node", "id": 5099630348, "lat": 28.0285091, "lon": -82.3929595}, {"type": "node", "id": 5099684180, "lat": 27.9410988, "lon": -82.5054945}, {"type": "node", "id": 5099684181, "lat": 27.940975, "lon": -82.5054962}, {"type": "node", "id": 5099684182, "lat": 27.9409722, "lon": -82.5052386}, {"type": "node", "id": 5099684183, "lat": 27.9410961, "lon": -82.5052386}, {"type": "node", "id": 5099684799, "lat": 27.9381746, "lon": -82.5061677}, {"type": "node", "id": 5099684800, "lat": 27.9381722, "lon": -82.5059276}, {"type": "node", "id": 5099684801, "lat": 27.9382895, "lon": -82.5059261}, {"type": "node", "id": 5099692176, "lat": 27.9451381, "lon": -82.5004912}, {"type": "node", "id": 5099693505, "lat": 27.9451379, "lon": -82.5006209}, {"type": "node", "id": 5099697071, "lat": 27.9450242, "lon": -82.5006208}, {"type": "node", "id": 5099701058, "lat": 27.9450243, "lon": -82.5004907}, {"type": "node", "id": 5099895738, "lat": 28.026118, "lon": -82.5599497}, {"type": "node", "id": 5099895740, "lat": 28.0263278, "lon": -82.559805}, {"type": "node", "id": 5099895741, "lat": 28.026117, "lon": -82.5598068}, {"type": "node", "id": 5099916249, "lat": 28.0262899, "lon": -82.5455183}, {"type": "node", "id": 5099916253, "lat": 28.0260819, "lon": -82.5455233}, {"type": "node", "id": 5099916259, "lat": 28.02608, "lon": -82.5453414}, {"type": "node", "id": 5100041315, "lat": 28.0127067, "lon": -82.50571}, {"type": "node", "id": 5100041316, "lat": 28.0127067, "lon": -82.5053906}, {"type": "node", "id": 5100041421, "lat": 28.0128018, "lon": -82.50539}, {"type": "node", "id": 5100046024, "lat": 28.0249641, "lon": -82.5067992}, {"type": "node", "id": 5100046025, "lat": 28.0250089, "lon": -82.5067986}, {"type": "node", "id": 5100046026, "lat": 28.0250089, "lon": -82.5067404}, {"type": "node", "id": 5100046027, "lat": 28.0249635, "lon": -82.5067418}, {"type": "node", "id": 5100046028, "lat": 28.0247845, "lon": -82.5067442}, {"type": "node", "id": 5100046029, "lat": 28.0247397, "lon": -82.5067449}, {"type": "node", "id": 5100046030, "lat": 28.0247397, "lon": -82.5068596}, {"type": "node", "id": 5100046031, "lat": 28.0249648, "lon": -82.5068566}, {"type": "node", "id": 5100046034, "lat": 28.0249629, "lon": -82.5066844}, {"type": "node", "id": 5100046035, "lat": 28.0247839, "lon": -82.5066869}, {"type": "node", "id": 5100088677, "lat": 28.0696666, "lon": -82.4369814}, {"type": "node", "id": 5100088678, "lat": 28.0696666, "lon": -82.436868}, {"type": "node", "id": 5100088681, "lat": 28.0694254, "lon": -82.4328667}, {"type": "node", "id": 5100088683, "lat": 28.0694523, "lon": -82.436871}, {"type": "node", "id": 5100088684, "lat": 28.0694523, "lon": -82.4369845}, {"type": "node", "id": 5100088685, "lat": 28.0694254, "lon": -82.4327586}, {"type": "node", "id": 5100088691, "lat": 28.0696247, "lon": -82.4328668}, {"type": "node", "id": 5100088692, "lat": 28.0696752, "lon": -82.4327587}, {"type": "node", "id": 5100088701, "lat": 28.0697156, "lon": -82.4321319}, {"type": "node", "id": 5100088702, "lat": 28.0697112, "lon": -82.4320001}, {"type": "node", "id": 5100088703, "lat": 28.0695335, "lon": -82.4320076}, {"type": "node", "id": 5100088704, "lat": 28.0695379, "lon": -82.4321394}, {"type": "node", "id": 5100122894, "lat": 28.0551257, "lon": -82.4433174}, {"type": "node", "id": 5100122895, "lat": 28.0551234, "lon": -82.4431173}, {"type": "node", "id": 5100123033, "lat": 28.0548908, "lon": -82.4431207}, {"type": "node", "id": 5100123034, "lat": 28.054893, "lon": -82.4433208}, {"type": "node", "id": 5100123128, "lat": 28.0550569, "lon": -82.4447905}, {"type": "node", "id": 5100123129, "lat": 28.0550587, "lon": -82.4448439}, {"type": "node", "id": 5100123130, "lat": 28.0551058, "lon": -82.4448419}, {"type": "node", "id": 5100123131, "lat": 28.0551038, "lon": -82.4447829}, {"type": "node", "id": 5100123132, "lat": 28.0551981, "lon": -82.4447789}, {"type": "node", "id": 5100123133, "lat": 28.0551942, "lon": -82.4446609}, {"type": "node", "id": 5100123134, "lat": 28.0549586, "lon": -82.4446708}, {"type": "node", "id": 5100123135, "lat": 28.0549625, "lon": -82.4447888}, {"type": "node", "id": 5100215267, "lat": 28.068877, "lon": -82.4335795}, {"type": "node", "id": 5100215272, "lat": 28.0686738, "lon": -82.4334142}, {"type": "node", "id": 5100215273, "lat": 28.0686755, "lon": -82.4333619}, {"type": "node", "id": 5100215274, "lat": 28.0688838, "lon": -82.4333704}, {"type": "node", "id": 5100215275, "lat": 28.068711, "lon": -82.4331261}, {"type": "node", "id": 5100215276, "lat": 28.0686687, "lon": -82.433571}, {"type": "node", "id": 5100215277, "lat": 28.0686704, "lon": -82.4335187}, {"type": "node", "id": 5100215278, "lat": 28.0686288, "lon": -82.433517}, {"type": "node", "id": 5100215279, "lat": 28.0686321, "lon": -82.4334125}, {"type": "node", "id": 5100215284, "lat": 28.0687073, "lon": -82.433017}, {"type": "node", "id": 5100215285, "lat": 28.0688735, "lon": -82.43301}, {"type": "node", "id": 5100215286, "lat": 28.0688771, "lon": -82.4331191}, {"type": "node", "id": 5100284752, "lat": 28.0550469, "lon": -82.432378}, {"type": "node", "id": 5100284753, "lat": 28.0550451, "lon": -82.432516}, {"type": "node", "id": 5100284754, "lat": 28.054835, "lon": -82.4325122}, {"type": "node", "id": 5100284755, "lat": 28.0548369, "lon": -82.4323743}, {"type": "node", "id": 5100284756, "lat": 28.0550059, "lon": -82.433364}, {"type": "node", "id": 5100284757, "lat": 28.0548557, "lon": -82.4333695}, {"type": "node", "id": 5100284758, "lat": 28.0548505, "lon": -82.4331873}, {"type": "node", "id": 5100284759, "lat": 28.0550007, "lon": -82.4331818}, {"type": "node", "id": 5100285537, "lat": 28.053958, "lon": -82.4505328}, {"type": "node", "id": 5100285540, "lat": 28.0541098, "lon": -82.4505348}, {"type": "node", "id": 5100285541, "lat": 28.054108, "lon": -82.4507104}, {"type": "node", "id": 5100285560, "lat": 28.0539065, "lon": -82.4507077}, {"type": "node", "id": 5100285561, "lat": 28.0539065, "lon": -82.4505512}, {"type": "node", "id": 5100285563, "lat": 28.0539578, "lon": -82.4505512}, {"type": "node", "id": 5100285613, "lat": 28.054992, "lon": -82.4442776}, {"type": "node", "id": 5100285616, "lat": 28.0549925, "lon": -82.4443019}, {"type": "node", "id": 5100285617, "lat": 28.0547939, "lon": -82.4443047}, {"type": "node", "id": 5100285931, "lat": 28.0547939, "lon": -82.4442066}, {"type": "node", "id": 5100285933, "lat": 28.0550408, "lon": -82.4442031}, {"type": "node", "id": 5100285934, "lat": 28.0550408, "lon": -82.4442769}, {"type": "node", "id": 5100342383, "lat": 28.0337625, "lon": -82.4221433}, {"type": "node", "id": 5100342384, "lat": 28.033591, "lon": -82.4221439}, {"type": "node", "id": 5100342385, "lat": 28.0338923, "lon": -82.4221838}, {"type": "node", "id": 5100342386, "lat": 28.0337626, "lon": -82.4221843}, {"type": "node", "id": 5100342387, "lat": 28.0337645, "lon": -82.422557}, {"type": "node", "id": 5100342389, "lat": 28.0335922, "lon": -82.4225895}, {"type": "node", "id": 5100342390, "lat": 28.0337646, "lon": -82.4225889}, {"type": "node", "id": 5100342391, "lat": 28.033852, "lon": -82.4225924}, {"type": "node", "id": 5100342392, "lat": 28.034004, "lon": -82.4225919}, {"type": "node", "id": 5100342397, "lat": 28.0340034, "lon": -82.4223312}, {"type": "node", "id": 5100342398, "lat": 28.0338927, "lon": -82.4223316}, {"type": "node", "id": 5100342631, "lat": 28.0347275, "lon": -82.4255664}, {"type": "node", "id": 5100342632, "lat": 28.0347256, "lon": -82.4256405}, {"type": "node", "id": 5100342633, "lat": 28.034853, "lon": -82.4256896}, {"type": "node", "id": 5100342634, "lat": 28.0348528, "lon": -82.4255698}, {"type": "node", "id": 5100342637, "lat": 28.0347394, "lon": -82.4256406}, {"type": "node", "id": 5100342638, "lat": 28.0347388, "lon": -82.4256886}, {"type": "node", "id": 5100349828, "lat": 28.0415796, "lon": -82.4129598}, {"type": "node", "id": 5100349829, "lat": 28.041577, "lon": -82.4130409}, {"type": "node", "id": 5100349834, "lat": 28.0417065, "lon": -82.4130461}, {"type": "node", "id": 5100349835, "lat": 28.0417091, "lon": -82.4129651}, {"type": "node", "id": 5100350088, "lat": 28.0428047, "lon": -82.4127546}, {"type": "node", "id": 5100350089, "lat": 28.0427171, "lon": -82.4127552}, {"type": "node", "id": 5100350094, "lat": 28.0427176, "lon": -82.4128547}, {"type": "node", "id": 5100350095, "lat": 28.0428052, "lon": -82.4128541}, {"type": "node", "id": 5101845885, "lat": 27.9656105, "lon": -82.4013487}, {"type": "node", "id": 5101845886, "lat": 27.9654861, "lon": -82.4013486}, {"type": "node", "id": 5101845889, "lat": 27.9655352, "lon": -82.4010774}, {"type": "node", "id": 5101845890, "lat": 27.9656075, "lon": -82.4010774}, {"type": "node", "id": 5101845891, "lat": 27.9654893, "lon": -82.4011128}, {"type": "node", "id": 5101845892, "lat": 27.9655363, "lon": -82.4011123}, {"type": "node", "id": 5102409565, "lat": 28.0547926, "lon": -82.3922883}, {"type": "node", "id": 5102409567, "lat": 28.0547913, "lon": -82.3921521}, {"type": "node", "id": 5102409569, "lat": 28.0550605, "lon": -82.3921487}, {"type": "node", "id": 5102409570, "lat": 28.0550618, "lon": -82.3922849}, {"type": "node", "id": 5102409609, "lat": 28.0551178, "lon": -82.395154}, {"type": "node", "id": 5102409610, "lat": 28.0548877, "lon": -82.3951519}, {"type": "node", "id": 5102409613, "lat": 28.0548875, "lon": -82.3951273}, {"type": "node", "id": 5102409614, "lat": 28.0548516, "lon": -82.3951275}, {"type": "node", "id": 5102409616, "lat": 28.0548431, "lon": -82.3951021}, {"type": "node", "id": 5102409619, "lat": 28.0548427, "lon": -82.3950668}, {"type": "node", "id": 5102409620, "lat": 28.0548153, "lon": -82.3950667}, {"type": "node", "id": 5102409623, "lat": 28.0548147, "lon": -82.3950066}, {"type": "node", "id": 5102409625, "lat": 28.0551158, "lon": -82.3950095}, {"type": "node", "id": 5102409760, "lat": 28.0557878, "lon": -82.394304}, {"type": "node", "id": 5102409763, "lat": 28.0556715, "lon": -82.3943047}, {"type": "node", "id": 5102409764, "lat": 28.0556715, "lon": -82.3940304}, {"type": "node", "id": 5102409891, "lat": 28.0553025, "lon": -82.3928487}, {"type": "node", "id": 5102409893, "lat": 28.0554572, "lon": -82.3928456}, {"type": "node", "id": 5102409894, "lat": 28.0554619, "lon": -82.3931397}, {"type": "node", "id": 5102409896, "lat": 28.0554373, "lon": -82.3931402}, {"type": "node", "id": 5102409898, "lat": 28.0554388, "lon": -82.3932347}, {"type": "node", "id": 5102409900, "lat": 28.0553087, "lon": -82.3932374}, {"type": "node", "id": 5102409910, "lat": 28.0548202, "lon": -82.3948616}, {"type": "node", "id": 5102409912, "lat": 28.0548166, "lon": -82.3947516}, {"type": "node", "id": 5102409914, "lat": 28.0550403, "lon": -82.3947483}, {"type": "node", "id": 5102409916, "lat": 28.0550438, "lon": -82.3948582}, {"type": "node", "id": 5102622148, "lat": 27.9473857, "lon": -82.5238514}, {"type": "node", "id": 5102622149, "lat": 27.9473862, "lon": -82.5240156}, {"type": "node", "id": 5102622150, "lat": 27.947557, "lon": -82.5240149}, {"type": "node", "id": 5102622151, "lat": 27.9475565, "lon": -82.5238508}, {"type": "node", "id": 5102624662, "lat": 27.9452195, "lon": -82.5126948}, {"type": "node", "id": 5102624668, "lat": 27.9450533, "lon": -82.512696}, {"type": "node", "id": 5102624674, "lat": 27.9452189, "lon": -82.512589}, {"type": "node", "id": 5102624680, "lat": 27.9450527, "lon": -82.5125903}, {"type": "node", "id": 5102808166, "lat": 27.9646175, "lon": -82.5050692}, {"type": "node", "id": 5102808167, "lat": 27.9646171, "lon": -82.5051111}, {"type": "node", "id": 5102808170, "lat": 27.9643602, "lon": -82.5050723}, {"type": "node", "id": 5102808171, "lat": 27.9644988, "lon": -82.5048987}, {"type": "node", "id": 5102808172, "lat": 27.9644904, "lon": -82.5051144}, {"type": "node", "id": 5102808173, "lat": 27.9644898, "lon": -82.5050717}, {"type": "node", "id": 5102808176, "lat": 27.9646692, "lon": -82.504893}, {"type": "node", "id": 5102808177, "lat": 27.9646799, "lon": -82.5050652}, {"type": "node", "id": 5102810987, "lat": 27.9665826, "lon": -82.5048037}, {"type": "node", "id": 5102810990, "lat": 27.9663075, "lon": -82.5048075}, {"type": "node", "id": 5102810992, "lat": 27.9665826, "lon": -82.5049461}, {"type": "node", "id": 5102810993, "lat": 27.9663075, "lon": -82.5049499}, {"type": "node", "id": 5102811921, "lat": 27.9588826, "lon": -82.5047953}, {"type": "node", "id": 5102811922, "lat": 27.9590247, "lon": -82.5047934}, {"type": "node", "id": 5102811923, "lat": 27.9590288, "lon": -82.5051676}, {"type": "node", "id": 5102811924, "lat": 27.9588866, "lon": -82.5051695}, {"type": "node", "id": 5102815708, "lat": 27.9747671, "lon": -82.485317}, {"type": "node", "id": 5102815709, "lat": 27.9746637, "lon": -82.4853197}, {"type": "node", "id": 5102815712, "lat": 27.9746475, "lon": -82.4851724}, {"type": "node", "id": 5102815713, "lat": 27.9746613, "lon": -82.485172}, {"type": "node", "id": 5102815714, "lat": 27.9746617, "lon": -82.4852179}, {"type": "node", "id": 5102815715, "lat": 27.9746484, "lon": -82.4852183}, {"type": "node", "id": 5102815716, "lat": 27.9747209, "lon": -82.4850932}, {"type": "node", "id": 5102815717, "lat": 27.9747625, "lon": -82.4850921}, {"type": "node", "id": 5102815718, "lat": 27.97466, "lon": -82.4851064}, {"type": "node", "id": 5102815719, "lat": 27.9747211, "lon": -82.4851048}, {"type": "node", "id": 5102837862, "lat": 27.9746971, "lon": -82.4846184}, {"type": "node", "id": 5102837866, "lat": 27.9747933, "lon": -82.4842688}, {"type": "node", "id": 5102837867, "lat": 27.9747122, "lon": -82.484272}, {"type": "node", "id": 5102837868, "lat": 27.974717, "lon": -82.4844076}, {"type": "node", "id": 5102837869, "lat": 27.9746924, "lon": -82.4844085}, {"type": "node", "id": 5102837870, "lat": 27.974843, "lon": -82.4843669}, {"type": "node", "id": 5102837871, "lat": 27.9748308, "lon": -82.4843674}, {"type": "node", "id": 5102837872, "lat": 27.9748282, "lon": -82.4843012}, {"type": "node", "id": 5102837873, "lat": 27.9747944, "lon": -82.4843024}, {"type": "node", "id": 5102837874, "lat": 27.9748191, "lon": -82.4845732}, {"type": "node", "id": 5102837875, "lat": 27.9748362, "lon": -82.4845726}, {"type": "node", "id": 5102837876, "lat": 27.9748349, "lon": -82.4845368}, {"type": "node", "id": 5102837877, "lat": 27.9748484, "lon": -82.4845363}, {"type": "node", "id": 5102837881, "lat": 27.9748207, "lon": -82.4846137}, {"type": "node", "id": 5102854813, "lat": 27.9566554, "lon": -82.4845007}, {"type": "node", "id": 5102854814, "lat": 27.9566626, "lon": -82.4847212}, {"type": "node", "id": 5102854815, "lat": 27.9567565, "lon": -82.4847173}, {"type": "node", "id": 5104132705, "lat": 27.9381902, "lon": -82.4350511}, {"type": "node", "id": 5104132708, "lat": 27.9379271, "lon": -82.4350596}, {"type": "node", "id": 5104132713, "lat": 27.9379226, "lon": -82.4349252}, {"type": "node", "id": 5104132715, "lat": 27.9380064, "lon": -82.4349226}, {"type": "node", "id": 5104132716, "lat": 27.9380054, "lon": -82.434864}, {"type": "node", "id": 5104132718, "lat": 27.938184, "lon": -82.4348615}, {"type": "node", "id": 5104132722, "lat": 27.9385982, "lon": -82.4349312}, {"type": "node", "id": 5104132723, "lat": 27.9385976, "lon": -82.4350706}, {"type": "node", "id": 5104132724, "lat": 27.9384788, "lon": -82.4349312}, {"type": "node", "id": 5104132726, "lat": 27.9384794, "lon": -82.4349482}, {"type": "node", "id": 5104132728, "lat": 27.938389, "lon": -82.4350724}, {"type": "node", "id": 5104234754, "lat": 27.9562252, "lon": -82.4301647}, {"type": "node", "id": 5104265616, "lat": 27.9449513, "lon": -82.4752133}, {"type": "node", "id": 5104265617, "lat": 27.9450735, "lon": -82.4752123}, {"type": "node", "id": 5104265619, "lat": 27.9449503, "lon": -82.4750378}, {"type": "node", "id": 5105464267, "lat": 27.9756226, "lon": -82.4854549, "tags": {"amenity": "fast_food", "brand": "China Wok", "brand:wikidata": "Q5766542", "cuisine": "chinese", "name": "China Wok", "smoking": "no", "takeaway": "yes"}}, {"type": "node", "id": 5203386079, "lat": 28.09595, "lon": -82.5017147}, {"type": "node", "id": 5203386080, "lat": 28.0958796, "lon": -82.5013784}, {"type": "node", "id": 5203386081, "lat": 28.0959853, "lon": -82.5013787}, {"type": "node", "id": 5203386083, "lat": 28.0957299, "lon": -82.5030077}, {"type": "node", "id": 5203386084, "lat": 28.0957353, "lon": -82.5027606}, {"type": "node", "id": 5203386085, "lat": 28.0958957, "lon": -82.5027651}, {"type": "node", "id": 5203386110, "lat": 28.0997913, "lon": -82.5017965}, {"type": "node", "id": 5203386111, "lat": 28.0998072, "lon": -82.5015302}, {"type": "node", "id": 5203386112, "lat": 28.0999501, "lon": -82.5015338}, {"type": "node", "id": 5286597218, "lat": 28.1507027, "lon": -82.3540681}, {"type": "node", "id": 5286597219, "lat": 28.150659, "lon": -82.3540678}, {"type": "node", "id": 5286597220, "lat": 28.1506588, "lon": -82.3541107}, {"type": "node", "id": 5286597221, "lat": 28.1506025, "lon": -82.3541103}, {"type": "node", "id": 5286597222, "lat": 28.1506031, "lon": -82.3539988}, {"type": "node", "id": 5286597223, "lat": 28.1505944, "lon": -82.3539987}, {"type": "node", "id": 5286597224, "lat": 28.1505948, "lon": -82.3539103}, {"type": "node", "id": 5286597225, "lat": 28.1506092, "lon": -82.3539104}, {"type": "node", "id": 5286597226, "lat": 28.1506095, "lon": -82.3538477}, {"type": "node", "id": 5286597227, "lat": 28.1507039, "lon": -82.3538483}, {"type": "node", "id": 5662473621, "lat": 28.0262879, "lon": -82.5453396}, {"type": "node", "id": 5823590837, "lat": 28.0338519, "lon": -82.4225567},