{"version": 0.6, "generator": "Overpass API 0.7.62.11 87bfad18", "osm3s": {"timestamp_osm_base": "2026-04-13T13:26:31Z", "copyright": "The data included in this document is from www.openstreetmap.org. The data is made available under ODbL."}, "elements": [{"type": "node", "id": 1071603513, "lat": 27.327355, "lon": -82.5298761}, {"type": "node", "id": 1834832945, "lat": 27.3273842, "lon": -82.5297684}, {"type": "node", "id": 1834832951, "lat": 27.3271291, "lon": -82.5297986}, {"type": "node", "id": 1834832953, "lat": 27.3271583, "lon": -82.5296909}, {"type": "node", "id": 3132907962, "lat": 27.299233, "lon": -82.5301715}, {"type": "node", "id": 3132907963, "lat": 27.2991289, "lon": -82.5301747}, {"type": "node", "id": 3132907964, "lat": 27.2991276, "lon": -82.5299126}, {"type": "node", "id": 3132907965, "lat": 27.2992516, "lon": -82.5299114}, {"type": "node", "id": 3132908036, "lat": 27.328831, "lon": -82.5303166}, {"type": "node", "id": 3132908037, "lat": 27.3287354, "lon": -82.5303154}, {"type": "node", "id": 3132908038, "lat": 27.3287385, "lon": -82.5300075}, {"type": "node", "id": 3132908039, "lat": 27.3288341, "lon": -82.5300087}, {"type": "node", "id": 3132908048, "lat": 27.3395207, "lon": -82.5307281, "tags": {"alt_name": "Dunkin' Donuts", "amenity": "fast_food", "brand": "Dunkin'", "brand:wikidata": "Q847743", "contact:website": "https://locations.dunkindonuts.com/en/fl/sarasota/300-washington-blvd-n/340986", "cuisine": "donut;coffee_shop", "fixme:atp": "Check if still exists. No corresponding ATP object.", "name": "Dunkin'", "takeaway": "yes"}}, {"type": "node", "id": 3132908113, "lat": 27.3520399, "lon": -82.506893, "tags": {"addr:city": "Sarasota", "addr:housenumber": "3080", "addr:postcode": "34234", "addr:state": "FL", "addr:street": "17th Street", "amenity": "fast_food", "branch": "17th St", "brand": "Papa John's", "brand:wikidata": "Q2759586", "cuisine": "pizza", "name": "Papa John's", "opening_hours": "Mo-Th 10:00-01:00; Fr-Sa 10:00-02:00; Su 10:00-24:00", "phone": "+1 941-952-9966", "takeaway": "yes", "website": "https://locations.papajohns.com/united-states/fl/34234/sarasota/3080-17th-st"}}, {"type": "node", "id": 3132908131, "lat": 27.371797, "lon": -82.5316783}, {"type": "node", "id": 3132908132, "lat": 27.371803, "lon": -82.5314223}, {"type": "node", "id": 3132908133, "lat": 27.3716893, "lon": -82.5314189}, {"type": "node", "id": 3132908134, "lat": 27.3716832, "lon": -82.5316749}, {"type": "node", "id": 3299425379, "lat": 27.3399049, "lon": -82.4978946}, {"type": "node", "id": 3299425380, "lat": 27.3399078, "lon": -82.4977164}, {"type": "node", "id": 3299425381, "lat": 27.3399079, "lon": -82.4977516}, {"type": "node", "id": 3299425382, "lat": 27.3399198, "lon": -82.4977516}, {"type": "node", "id": 3299425383, "lat": 27.3399201, "lon": -82.4978419}, {"type": "node", "id": 3299426161, "lat": 27.3378067, "lon": -82.4988805}, {"type": "node", "id": 3299426162, "lat": 27.3378074, "lon": -82.4989998}, {"type": "node", "id": 3299426170, "lat": 27.3378877, "lon": -82.4988537}, {"type": "node", "id": 3299426171, "lat": 27.3378879, "lon": -82.4988799}, {"type": "node", "id": 3299426172, "lat": 27.3378891, "lon": -82.4989992}, {"type": "node", "id": 3299426173, "lat": 27.3378893, "lon": -82.4990308}, {"type": "node", "id": 3299426194, "lat": 27.3381205, "lon": -82.4989567}, {"type": "node", "id": 3299426195, "lat": 27.3381209, "lon": -82.499029}, {"type": "node", "id": 3299426200, "lat": 27.3381429, "lon": -82.4988516}, {"type": "node", "id": 3299426201, "lat": 27.3381436, "lon": -82.4989565}, {"type": "node", "id": 3299426282, "lat": 27.3397929, "lon": -82.497681}, {"type": "node", "id": 3299426283, "lat": 27.3397935, "lon": -82.4978465}, {"type": "node", "id": 3299426284, "lat": 27.3397989, "lon": -82.4978465}, {"type": "node", "id": 3299426285, "lat": 27.3397991, "lon": -82.4978951}, {"type": "node", "id": 3299426288, "lat": 27.3398986, "lon": -82.4976805}, {"type": "node", "id": 3299426289, "lat": 27.3398987, "lon": -82.4977164}, {"type": "node", "id": 3299426290, "lat": 27.3399047, "lon": -82.497842}, {"type": "node", "id": 8117849420, "lat": 27.318176, "lon": -82.529458}, {"type": "node", "id": 8117849421, "lat": 27.318054, "lon": -82.529458}, {"type": "node", "id": 8117849422, "lat": 27.318054, "lon": -82.529267}, {"type": "node", "id": 8117849423, "lat": 27.318176, "lon": -82.529267}, {"type": "node", "id": 8117849623, "lat": 27.318893, "lon": -82.529173}, {"type": "node", "id": 8117849624, "lat": 27.318952, "lon": -82.529174}, {"type": "node", "id": 8117849625, "lat": 27.318952, "lon": -82.529224}, {"type": "node", "id": 8117849626, "lat": 27.318996, "lon": -82.529224}, {"type": "node", "id": 8117849627, "lat": 27.318993, "lon": -82.529499}, {"type": "node", "id": 8117849628, "lat": 27.31889, "lon": -82.529498}, {"type": "node", "id": 8858669832, "lat": 27.3520638, "lon": -82.5050803, "tags": {"amenity": "fast_food", "brand": "Krispy Krunchy Chicken", "brand:wikidata": "Q65087447", "cuisine": "chicken", "name": "Krispy Krunchy Chicken", "takeaway": "yes"}}, {"type": "node", "id": 9578058348, "lat": 27.2992329, "lon": -82.5300935}, {"type": "node", "id": 9578058349, "lat": 27.2992527, "lon": -82.5300935}, {"type": "way", "id": 172594175, "nodes": [1071603513, 1834832945, 1834832953, 1834832951, 1071603513], "tags": {"addr:city": "Sarasota", "addr:housenumber": "855", "addr:postcode": "34236", "addr:state": "FL", "addr:street": "South Tamiami Trail", "amenity": "fast_food", "brand": "Taco Bell", "brand:wikidata": "Q752941", "building": "commercial", "cuisine": "tex-mex", "name": "Taco Bell", "opening_hours": "Mo-Th 09:00-04:00; Fr-Sa 09:00-05:00; Su 09:00-04:00", "phone": "+1 941-957-4389", "takeaway": "yes", "website": "https://locations.tacobell.com/fl/sarasota/855-south-tamiami-trail.html"}}, {"type": "way", "id": 308005821, "nodes": [3132907962, 3132907963, 3132907964, 3132907965, 9578058349, 9578058348, 3132907962], "tags": {"addr:city": "Sarasota", "addr:housenumber": "3875", "addr:postcode": "34239", "addr:state": "FL", "addr:street": "South Tamiami Trail", "amenity": "fast_food", "brand": "McDonald's", "brand:wikidata": "Q38076", "building": "yes", "cuisine": "burger", "drive_through": "yes", "internet_access": "wlan", "name": "McDonald's", "opening_hours": "Mo-Sa 05:00-23:00; Su 06:00-23:00", "phone": "+1 941-954-7589", "takeaway": "yes", "website": "https://www.mcdonalds.com/us/en-us/location/33325.html"}}, {"type": "way", "id": 308005834, "nodes": [3132908036, 3132908037, 3132908038, 3132908039, 3132908036], "tags": {"addr:city": "Sarasota", "addr:housenumber": "787", "addr:postcode": "34236", "addr:state": "FL", "addr:street": "Washington Boulevard", "amenity": "fast_food", "brand": "McDonald's", "brand:wikidata": "Q38076", "building": "retail", "cuisine": "burger", "drive_through": "yes", "internet_access": "wlan", "name": "McDonald's", "opening_hours": "05:00-23:00", "phone": "+1 941-365-3030", "takeaway": "yes", "website": "https://www.mcdonalds.com/us/en-us/location/5983.html"}}, {"type": "way", "id": 308005859, "nodes": [3132908131, 3132908132, 3132908133, 3132908134, 3132908131], "tags": {"addr:city": "Sarasota", "addr:housenumber": "4301", "addr:postcode": "34234", "addr:state": "FL", "addr:street": "North Washington Boulevard", "amenity": "fast_food", "brand": "McDonald's", "brand:wikidata": "Q38076", "building": "yes", "cuisine": "burger", "drive_through": "yes", "internet_access": "wlan", "name": "McDonald's", "opening_hours": "05:00-22:00", "phone": "+1 941-312-5887", "takeaway": "yes", "website": "https://www.mcdonalds.com/us/en-us/location/13787.html"}}, {"type": "way", "id": 323149022, "nodes": [3299426201, 3299426200, 3299426170, 3299426171, 3299426161, 3299426162, 3299426172, 3299426173, 3299426195, 3299426194, 3299426201], "tags": {"addr:city": "Sarasota", "addr:housenumber": "3511", "addr:postcode": "34237-9027", "addr:state": "FL", "addr:street": "Fruitville Road", "amenity": "fast_food", "brand": "McDonald's", "brand:wikidata": "Q38076", "building": "yes", "cuisine": "burger", "drive_through": "yes", "internet_access": "wlan", "name": "McDonald's", "opening_hours": "05:00-23:00", "phone": "+1 941-955-8840", "takeaway": "yes", "website": "https://www.mcdonalds.com/us/en-us/location/5049.html"}}, {"type": "way", "id": 323149023, "nodes": [3299425383, 3299425382, 3299425381, 3299425380, 3299426289, 3299426288, 3299426282, 3299426283, 3299426284, 3299426285, 3299425379, 3299426290, 3299425383], "tags": {"addr:city": "Sarasota", "addr:housenumber": "301", "addr:postcode": "34232", "addr:state": "FL", "addr:street": "North Beneva Road", "amenity": "fast_food", "brand": "Wendy's", "brand:wikidata": "Q550258", "building": "yes", "cuisine": "burger", "name": "Wendy's", "opening_hours": "08:00-00:00", "opening_hours:drive_through": "Mo-Sa 06:30-01:00; Su 06:30-00:00", "phone": "+1 941-954-1220", "takeaway": "yes", "website": "https://locations.wendys.com/united-states/fl/sarasota/301-north-beneva-road"}}, {"type": "way", "id": 871547109, "nodes": [8117849420, 8117849421, 8117849422, 8117849423, 8117849420], "tags": {"addr:city": "Sarasota", "addr:housenumber": "1707", "addr:postcode": "34239", "addr:state": "FL", "addr:street": "South Tamiami Trail", "amenity": "fast_food", "brand": "Chipotle", "brand:wikidata": "Q465751", "building": "yes", "cuisine": "mexican", "name": "Chipotle", "official_name": "Chipotle Mexican Grill", "phone": "+1 941-957-6406", "source": "microsoft/BuildingFootprints", "takeaway": "yes", "website": "https://locations.chipotle.com/fl/sarasota/1707-s-tamiami-trl"}}, {"type": "way", "id": 871547132, "nodes": [8117849623, 8117849624, 8117849625, 8117849626, 8117849627, 8117849628, 8117849623], "tags": {"addr:city": "Sarasota", "addr:housenumber": "1601", "addr:postcode": "34239", "addr:state": "FL", "addr:street": "South Tamiami Trail", "amenity": "fast_food", "brand": "Wendy's", "brand:wikidata": "Q550258", "building": "yes", "cuisine": "burger", "name": "Wendy's", "opening_hours": "08:00-22:00", "opening_hours:drive_through": "Mo-Sa 06:30-01:00; Su 06:30-00:00", "phone": "+1 941-364-8015", "source": "microsoft/BuildingFootprints", "takeaway": "yes", "website": "https://locations.wendys.com/united-states/fl/sarasota/1601-s-tamiami-trail"}}]}